[
  {
    "cluster_id": "K_001",
    "segment_id": "KAARST_OSM_41564",
    "primary_street": "Aachener Straße",
    "house_range": "1 - 29",
    "lead_count": 21,
    "A_count": 8,
    "B_count": 13,
    "unnamed_attached_count": 0,
    "recommended_action": "DOOR_TO_DOOR_FIRST",
    "cluster_centroid_lat": 51.19447,
    "cluster_centroid_lon": 6.612693,
    "_v2_generated_at": "2026-05-17T19:34:43.769271+00:00",
    "_v2_buildings_in_pbf": 21,
    "_v2_housenumber_coverage": 1.0
  },
  {
    "cluster_id": "K_002",
    "segment_id": "KAARST_OSM_41564",
    "primary_street": "Achatweg",
    "house_range": "2 - 12",
    "lead_count": 5,
    "A_count": 2,
    "B_count": 3,
    "unnamed_attached_count": 0,
    "recommended_action": "DESK_REVIEW_FIRST",
    "cluster_centroid_lat": 51.215436,
    "cluster_centroid_lon": 6.617531,
    "_v2_generated_at": "2026-05-17T19:34:43.769314+00:00",
    "_v2_buildings_in_pbf": 5,
    "_v2_housenumber_coverage": 1.0
  },
  {
    "cluster_id": "K_003",
    "segment_id": "KAARST_OSM_41564",
    "primary_street": "Adenauer Allee",
    "house_range": "1 - 19",
    "lead_count": 17,
    "A_count": 6,
    "B_count": 11,
    "unnamed_attached_count": 0,
    "recommended_action": "DOOR_TO_DOOR_FIRST",
    "cluster_centroid_lat": 51.230095,
    "cluster_centroid_lon": 6.630123,
    "_v2_generated_at": "2026-05-17T19:34:43.769354+00:00",
    "_v2_buildings_in_pbf": 17,
    "_v2_housenumber_coverage": 1.0
  },
  {
    "cluster_id": "K_004",
    "segment_id": "KAARST_OSM_41564",
    "primary_street": "Adlerstraße",
    "house_range": "1a - 30",
    "lead_count": 21,
    "A_count": 8,
    "B_count": 13,
    "unnamed_attached_count": 0,
    "recommended_action": "DOOR_TO_DOOR_FIRST",
    "cluster_centroid_lat": 51.229732,
    "cluster_centroid_lon": 6.603868,
    "_v2_generated_at": "2026-05-17T19:34:43.769395+00:00",
    "_v2_buildings_in_pbf": 21,
    "_v2_housenumber_coverage": 1.0
  },
  {
    "cluster_id": "K_005",
    "segment_id": "KAARST_OSM_GENERAL",
    "primary_street": "Adlerstraße",
    "house_range": "7 - 11",
    "lead_count": 3,
    "A_count": 1,
    "B_count": 2,
    "unnamed_attached_count": 0,
    "recommended_action": "DESK_REVIEW_FIRST",
    "cluster_centroid_lat": 51.230468,
    "cluster_centroid_lon": 6.602506,
    "_v2_generated_at": "2026-05-17T19:34:43.769411+00:00",
    "_v2_buildings_in_pbf": 3,
    "_v2_housenumber_coverage": 1.0
  },
  {
    "cluster_id": "K_006",
    "segment_id": "KAARST_OSM_41564",
    "primary_street": "Ahornstraße",
    "house_range": "1 - 3",
    "lead_count": 3,
    "A_count": 1,
    "B_count": 2,
    "unnamed_attached_count": 0,
    "recommended_action": "DESK_REVIEW_FIRST",
    "cluster_centroid_lat": 51.219013,
    "cluster_centroid_lon": 6.610236,
    "_v2_generated_at": "2026-05-17T19:34:43.769425+00:00",
    "_v2_buildings_in_pbf": 3,
    "_v2_housenumber_coverage": 1.0
  },
  {
    "cluster_id": "K_007",
    "segment_id": "KAARST_OSM_GENERAL",
    "primary_street": "Ahornstraße",
    "house_range": "4 - 10",
    "lead_count": 7,
    "A_count": 2,
    "B_count": 5,
    "unnamed_attached_count": 0,
    "recommended_action": "DESK_REVIEW_FIRST",
    "cluster_centroid_lat": 51.218577,
    "cluster_centroid_lon": 6.610098,
    "_v2_generated_at": "2026-05-17T19:34:43.769444+00:00",
    "_v2_buildings_in_pbf": 7,
    "_v2_housenumber_coverage": 1.0
  },
  {
    "cluster_id": "K_008",
    "segment_id": "KAARST_OSM_41564",
    "primary_street": "Aldegundisstraße",
    "house_range": "1 - 15",
    "lead_count": 10,
    "A_count": 4,
    "B_count": 6,
    "unnamed_attached_count": 0,
    "recommended_action": "DESK_REVIEW_FIRST",
    "cluster_centroid_lat": 51.199745,
    "cluster_centroid_lon": 6.60282,
    "_v2_generated_at": "2026-05-17T19:34:43.769467+00:00",
    "_v2_buildings_in_pbf": 10,
    "_v2_housenumber_coverage": 1.0
  },
  {
    "cluster_id": "K_009",
    "segment_id": "KAARST_OSM_41564",
    "primary_street": "Allensteinstraße",
    "house_range": "1 - 29",
    "lead_count": 16,
    "A_count": 6,
    "B_count": 10,
    "unnamed_attached_count": 0,
    "recommended_action": "DOOR_TO_DOOR_FIRST",
    "cluster_centroid_lat": 51.21994,
    "cluster_centroid_lon": 6.636697,
    "_v2_generated_at": "2026-05-17T19:34:43.769498+00:00",
    "_v2_buildings_in_pbf": 16,
    "_v2_housenumber_coverage": 1.0
  },
  {
    "cluster_id": "K_010",
    "segment_id": "KAARST_OSM_41564",
    "primary_street": "Alma-Mahler-Werfel-Straße",
    "house_range": "1b - 24",
    "lead_count": 26,
    "A_count": 10,
    "B_count": 16,
    "unnamed_attached_count": 0,
    "recommended_action": "DOOR_TO_DOOR_FIRST",
    "cluster_centroid_lat": 51.193683,
    "cluster_centroid_lon": 6.600689,
    "_v2_generated_at": "2026-05-17T19:34:43.769548+00:00",
    "_v2_buildings_in_pbf": 26,
    "_v2_housenumber_coverage": 1.0
  },
  {
    "cluster_id": "K_011",
    "segment_id": "KAARST_OSM_41564",
    "primary_street": "Alt Vorst",
    "house_range": "1 - 57",
    "lead_count": 12,
    "A_count": 4,
    "B_count": 8,
    "unnamed_attached_count": 0,
    "recommended_action": "DOOR_TO_DOOR_FIRST",
    "cluster_centroid_lat": 51.215241,
    "cluster_centroid_lon": 6.592223,
    "_v2_generated_at": "2026-05-17T19:34:43.769575+00:00",
    "_v2_buildings_in_pbf": 12,
    "_v2_housenumber_coverage": 1.0
  },
  {
    "cluster_id": "K_012",
    "segment_id": "KAARST_OSM_41564",
    "primary_street": "Alte Heerstraße",
    "house_range": "16 - 151",
    "lead_count": 100,
    "A_count": 40,
    "B_count": 60,
    "unnamed_attached_count": 0,
    "recommended_action": "DOOR_TO_DOOR_FIRST",
    "cluster_centroid_lat": 51.229765,
    "cluster_centroid_lon": 6.607976,
    "_v2_generated_at": "2026-05-17T19:34:43.769722+00:00",
    "_v2_buildings_in_pbf": 100,
    "_v2_housenumber_coverage": 1.0
  },
  {
    "cluster_id": "K_013",
    "segment_id": "KAARST_OSM_41564",
    "primary_street": "Am Alten Dorf",
    "house_range": "1 - 9",
    "lead_count": 7,
    "A_count": 2,
    "B_count": 5,
    "unnamed_attached_count": 0,
    "recommended_action": "DESK_REVIEW_FIRST",
    "cluster_centroid_lat": 51.2333,
    "cluster_centroid_lon": 6.616983,
    "_v2_generated_at": "2026-05-17T19:34:43.769743+00:00",
    "_v2_buildings_in_pbf": 7,
    "_v2_housenumber_coverage": 1.0
  },
  {
    "cluster_id": "K_014",
    "segment_id": "KAARST_OSM_41564",
    "primary_street": "Am Bauhof",
    "house_range": "2 - 4",
    "lead_count": 3,
    "A_count": 1,
    "B_count": 2,
    "unnamed_attached_count": 0,
    "recommended_action": "DESK_REVIEW_FIRST",
    "cluster_centroid_lat": 51.224836,
    "cluster_centroid_lon": 6.59498,
    "_v2_generated_at": "2026-05-17T19:34:43.769757+00:00",
    "_v2_buildings_in_pbf": 3,
    "_v2_housenumber_coverage": 1.0
  },
  {
    "cluster_id": "K_015",
    "segment_id": "KAARST_OSM_41564",
    "primary_street": "Am Bingerhof",
    "house_range": "3 - 19",
    "lead_count": 13,
    "A_count": 5,
    "B_count": 8,
    "unnamed_attached_count": 0,
    "recommended_action": "DOOR_TO_DOOR_FIRST",
    "cluster_centroid_lat": 51.231411,
    "cluster_centroid_lon": 6.598517,
    "_v2_generated_at": "2026-05-17T19:34:43.769782+00:00",
    "_v2_buildings_in_pbf": 13,
    "_v2_housenumber_coverage": 1.0
  },
  {
    "cluster_id": "K_016",
    "segment_id": "KAARST_OSM_41564",
    "primary_street": "Am Bisgeshof",
    "house_range": "2 - 38",
    "lead_count": 30,
    "A_count": 12,
    "B_count": 18,
    "unnamed_attached_count": 0,
    "recommended_action": "DOOR_TO_DOOR_FIRST",
    "cluster_centroid_lat": 51.225008,
    "cluster_centroid_lon": 6.606949,
    "_v2_generated_at": "2026-05-17T19:34:43.769831+00:00",
    "_v2_buildings_in_pbf": 30,
    "_v2_housenumber_coverage": 1.0
  },
  {
    "cluster_id": "K_017",
    "segment_id": "KAARST_OSM_41564",
    "primary_street": "Am Breiten Deich",
    "house_range": "1a - 23",
    "lead_count": 16,
    "A_count": 6,
    "B_count": 10,
    "unnamed_attached_count": 0,
    "recommended_action": "DOOR_TO_DOOR_FIRST",
    "cluster_centroid_lat": 51.222769,
    "cluster_centroid_lon": 6.583808,
    "_v2_generated_at": "2026-05-17T19:34:43.769864+00:00",
    "_v2_buildings_in_pbf": 16,
    "_v2_housenumber_coverage": 1.0
  },
  {
    "cluster_id": "K_018",
    "segment_id": "KAARST_OSM_41564",
    "primary_street": "Am Dreieck",
    "house_range": "1 - 39",
    "lead_count": 23,
    "A_count": 9,
    "B_count": 14,
    "unnamed_attached_count": 0,
    "recommended_action": "DOOR_TO_DOOR_FIRST",
    "cluster_centroid_lat": 51.22764,
    "cluster_centroid_lon": 6.617492,
    "_v2_generated_at": "2026-05-17T19:34:43.769904+00:00",
    "_v2_buildings_in_pbf": 23,
    "_v2_housenumber_coverage": 1.0
  },
  {
    "cluster_id": "K_019",
    "segment_id": "KAARST_OSM_41564",
    "primary_street": "Am Duffes-Pohl",
    "house_range": "1a - 28",
    "lead_count": 21,
    "A_count": 8,
    "B_count": 13,
    "unnamed_attached_count": 0,
    "recommended_action": "DOOR_TO_DOOR_FIRST",
    "cluster_centroid_lat": 51.220071,
    "cluster_centroid_lon": 6.596334,
    "_v2_generated_at": "2026-05-17T19:34:43.769941+00:00",
    "_v2_buildings_in_pbf": 21,
    "_v2_housenumber_coverage": 1.0
  },
  {
    "cluster_id": "K_020",
    "segment_id": "KAARST_OSM_41564",
    "primary_street": "Am Ehrenmal",
    "house_range": "2 - 30",
    "lead_count": 26,
    "A_count": 10,
    "B_count": 16,
    "unnamed_attached_count": 0,
    "recommended_action": "DOOR_TO_DOOR_FIRST",
    "cluster_centroid_lat": 51.212371,
    "cluster_centroid_lon": 6.624778,
    "_v2_generated_at": "2026-05-17T19:34:43.769987+00:00",
    "_v2_buildings_in_pbf": 26,
    "_v2_housenumber_coverage": 1.0
  },
  {
    "cluster_id": "K_021",
    "segment_id": "KAARST_OSM_41564",
    "primary_street": "Am Fliederbusch",
    "house_range": "1 - 9",
    "lead_count": 9,
    "A_count": 3,
    "B_count": 6,
    "unnamed_attached_count": 0,
    "recommended_action": "DESK_REVIEW_FIRST",
    "cluster_centroid_lat": 51.22033,
    "cluster_centroid_lon": 6.610613,
    "_v2_generated_at": "2026-05-17T19:34:43.770009+00:00",
    "_v2_buildings_in_pbf": 9,
    "_v2_housenumber_coverage": 1.0
  },
  {
    "cluster_id": "K_022",
    "segment_id": "KAARST_OSM_41564",
    "primary_street": "Am Hagelkreuz",
    "house_range": "1 - 19",
    "lead_count": 17,
    "A_count": 6,
    "B_count": 11,
    "unnamed_attached_count": 0,
    "recommended_action": "DOOR_TO_DOOR_FIRST",
    "cluster_centroid_lat": 51.232986,
    "cluster_centroid_lon": 6.619546,
    "_v2_generated_at": "2026-05-17T19:34:43.770040+00:00",
    "_v2_buildings_in_pbf": 17,
    "_v2_housenumber_coverage": 1.0
  },
  {
    "cluster_id": "K_023",
    "segment_id": "KAARST_OSM_41564",
    "primary_street": "Am Haindörnchen",
    "house_range": "1 - 67a",
    "lead_count": 46,
    "A_count": 18,
    "B_count": 28,
    "unnamed_attached_count": 0,
    "recommended_action": "DOOR_TO_DOOR_FIRST",
    "cluster_centroid_lat": 51.209062,
    "cluster_centroid_lon": 6.591803,
    "_v2_generated_at": "2026-05-17T19:34:43.770108+00:00",
    "_v2_buildings_in_pbf": 46,
    "_v2_housenumber_coverage": 1.0
  },
  {
    "cluster_id": "K_024",
    "segment_id": "KAARST_OSM_41564",
    "primary_street": "Am Hasenkamp",
    "house_range": "1 - 41",
    "lead_count": 18,
    "A_count": 7,
    "B_count": 11,
    "unnamed_attached_count": 0,
    "recommended_action": "DOOR_TO_DOOR_FIRST",
    "cluster_centroid_lat": 51.232557,
    "cluster_centroid_lon": 6.606546,
    "_v2_generated_at": "2026-05-17T19:34:43.770140+00:00",
    "_v2_buildings_in_pbf": 18,
    "_v2_housenumber_coverage": 1.0
  },
  {
    "cluster_id": "K_025",
    "segment_id": "KAARST_OSM_41564",
    "primary_street": "Am Hoverkamp",
    "house_range": "1 - 151",
    "lead_count": 132,
    "A_count": 52,
    "B_count": 80,
    "unnamed_attached_count": 0,
    "recommended_action": "DOOR_TO_DOOR_FIRST",
    "cluster_centroid_lat": 51.232318,
    "cluster_centroid_lon": 6.629016,
    "_v2_generated_at": "2026-05-17T19:34:43.770313+00:00",
    "_v2_buildings_in_pbf": 132,
    "_v2_housenumber_coverage": 1.0
  },
  {
    "cluster_id": "K_026",
    "segment_id": "KAARST_OSM_GENERAL",
    "primary_street": "Am Huppelpesch",
    "house_range": "1 - 25",
    "lead_count": 18,
    "A_count": 7,
    "B_count": 11,
    "unnamed_attached_count": 0,
    "recommended_action": "DOOR_TO_DOOR_FIRST",
    "cluster_centroid_lat": 51.224153,
    "cluster_centroid_lon": 6.621088,
    "_v2_generated_at": "2026-05-17T19:34:43.770348+00:00",
    "_v2_buildings_in_pbf": 18,
    "_v2_housenumber_coverage": 1.0
  },
  {
    "cluster_id": "K_027",
    "segment_id": "KAARST_OSM_41564",
    "primary_street": "Am Husemeshof",
    "house_range": "2 - 10",
    "lead_count": 9,
    "A_count": 3,
    "B_count": 6,
    "unnamed_attached_count": 0,
    "recommended_action": "DESK_REVIEW_FIRST",
    "cluster_centroid_lat": 51.232807,
    "cluster_centroid_lon": 6.617068,
    "_v2_generated_at": "2026-05-17T19:34:43.770371+00:00",
    "_v2_buildings_in_pbf": 9,
    "_v2_housenumber_coverage": 1.0
  },
  {
    "cluster_id": "K_028",
    "segment_id": "KAARST_OSM_41564",
    "primary_street": "Am Jägerhof",
    "house_range": "1 - 35",
    "lead_count": 35,
    "A_count": 14,
    "B_count": 21,
    "unnamed_attached_count": 0,
    "recommended_action": "DOOR_TO_DOOR_FIRST",
    "cluster_centroid_lat": 51.230608,
    "cluster_centroid_lon": 6.624058,
    "_v2_generated_at": "2026-05-17T19:34:43.770427+00:00",
    "_v2_buildings_in_pbf": 35,
    "_v2_housenumber_coverage": 1.0
  },
  {
    "cluster_id": "K_029",
    "segment_id": "KAARST_OSM_41564",
    "primary_street": "Am Kaufmannskreuz",
    "house_range": "1 - 19",
    "lead_count": 17,
    "A_count": 6,
    "B_count": 11,
    "unnamed_attached_count": 0,
    "recommended_action": "DOOR_TO_DOOR_FIRST",
    "cluster_centroid_lat": 51.200874,
    "cluster_centroid_lon": 6.615079,
    "_v2_generated_at": "2026-05-17T19:34:43.770459+00:00",
    "_v2_buildings_in_pbf": 17,
    "_v2_housenumber_coverage": 1.0
  },
  {
    "cluster_id": "K_030",
    "segment_id": "KAARST_OSM_41564",
    "primary_street": "Am Marienheim",
    "house_range": "2 - 20",
    "lead_count": 15,
    "A_count": 6,
    "B_count": 9,
    "unnamed_attached_count": 0,
    "recommended_action": "DOOR_TO_DOOR_FIRST",
    "cluster_centroid_lat": 51.232541,
    "cluster_centroid_lon": 6.616296,
    "_v2_generated_at": "2026-05-17T19:34:43.770489+00:00",
    "_v2_buildings_in_pbf": 15,
    "_v2_housenumber_coverage": 1.0
  },
  {
    "cluster_id": "K_031",
    "segment_id": "KAARST_OSM_41564",
    "primary_street": "Am Mühlenweg",
    "house_range": "1 - 7",
    "lead_count": 7,
    "A_count": 2,
    "B_count": 5,
    "unnamed_attached_count": 0,
    "recommended_action": "DESK_REVIEW_FIRST",
    "cluster_centroid_lat": 51.200922,
    "cluster_centroid_lon": 6.624977,
    "_v2_generated_at": "2026-05-17T19:34:43.770509+00:00",
    "_v2_buildings_in_pbf": 7,
    "_v2_housenumber_coverage": 1.0
  },
  {
    "cluster_id": "K_032",
    "segment_id": "KAARST_OSM_41564",
    "primary_street": "Am Neumarkt",
    "house_range": "2 - 13",
    "lead_count": 7,
    "A_count": 2,
    "B_count": 5,
    "unnamed_attached_count": 0,
    "recommended_action": "DESK_REVIEW_FIRST",
    "cluster_centroid_lat": 51.226113,
    "cluster_centroid_lon": 6.619761,
    "_v2_generated_at": "2026-05-17T19:34:43.770530+00:00",
    "_v2_buildings_in_pbf": 7,
    "_v2_housenumber_coverage": 1.0
  },
  {
    "cluster_id": "K_033",
    "segment_id": "KAARST_OSM_GENERAL",
    "primary_street": "Am Pfarrzentrum",
    "house_range": "4 - 18",
    "lead_count": 8,
    "A_count": 3,
    "B_count": 5,
    "unnamed_attached_count": 0,
    "recommended_action": "DESK_REVIEW_FIRST",
    "cluster_centroid_lat": 51.21722,
    "cluster_centroid_lon": 6.617337,
    "_v2_generated_at": "2026-05-17T19:34:43.770550+00:00",
    "_v2_buildings_in_pbf": 8,
    "_v2_housenumber_coverage": 1.0
  },
  {
    "cluster_id": "K_034",
    "segment_id": "KAARST_OSM_GENERAL",
    "primary_street": "Am Ringofen",
    "house_range": "1 - 14",
    "lead_count": 3,
    "A_count": 1,
    "B_count": 2,
    "unnamed_attached_count": 0,
    "recommended_action": "DESK_REVIEW_FIRST",
    "cluster_centroid_lat": 51.216584,
    "cluster_centroid_lon": 6.599173,
    "_v2_generated_at": "2026-05-17T19:34:43.770564+00:00",
    "_v2_buildings_in_pbf": 3,
    "_v2_housenumber_coverage": 1.0
  },
  {
    "cluster_id": "K_035",
    "segment_id": "KAARST_OSM_41564",
    "primary_street": "Am Sandfeld",
    "house_range": "1 - 35",
    "lead_count": 32,
    "A_count": 12,
    "B_count": 20,
    "unnamed_attached_count": 0,
    "recommended_action": "DOOR_TO_DOOR_FIRST",
    "cluster_centroid_lat": 51.220771,
    "cluster_centroid_lon": 6.624529,
    "_v2_generated_at": "2026-05-17T19:34:43.770614+00:00",
    "_v2_buildings_in_pbf": 32,
    "_v2_housenumber_coverage": 1.0
  },
  {
    "cluster_id": "K_036",
    "segment_id": "KAARST_OSM_41564",
    "primary_street": "Am Schulzentrum",
    "house_range": "2 - 18",
    "lead_count": 9,
    "A_count": 3,
    "B_count": 6,
    "unnamed_attached_count": 0,
    "recommended_action": "DESK_REVIEW_FIRST",
    "cluster_centroid_lat": 51.226177,
    "cluster_centroid_lon": 6.616155,
    "_v2_generated_at": "2026-05-17T19:34:43.770636+00:00",
    "_v2_buildings_in_pbf": 9,
    "_v2_housenumber_coverage": 1.0
  },
  {
    "cluster_id": "K_037",
    "segment_id": "KAARST_OSM_41564",
    "primary_street": "Am Siepbach",
    "house_range": "5 - 40",
    "lead_count": 27,
    "A_count": 10,
    "B_count": 17,
    "unnamed_attached_count": 0,
    "recommended_action": "DOOR_TO_DOOR_FIRST",
    "cluster_centroid_lat": 51.228783,
    "cluster_centroid_lon": 6.61709,
    "_v2_generated_at": "2026-05-17T19:34:43.770678+00:00",
    "_v2_buildings_in_pbf": 27,
    "_v2_housenumber_coverage": 1.0
  },
  {
    "cluster_id": "K_038",
    "segment_id": "KAARST_OSM_41564",
    "primary_street": "Am Spielmannsfalter",
    "house_range": "38a - 103",
    "lead_count": 3,
    "A_count": 1,
    "B_count": 2,
    "unnamed_attached_count": 0,
    "recommended_action": "DESK_REVIEW_FIRST",
    "cluster_centroid_lat": 51.216983,
    "cluster_centroid_lon": 6.571842,
    "_v2_generated_at": "2026-05-17T19:34:43.770692+00:00",
    "_v2_buildings_in_pbf": 3,
    "_v2_housenumber_coverage": 1.0
  },
  {
    "cluster_id": "K_039",
    "segment_id": "KAARST_OSM_41564",
    "primary_street": "Am Stüssgeshof",
    "house_range": "2c - 19",
    "lead_count": 19,
    "A_count": 7,
    "B_count": 12,
    "unnamed_attached_count": 0,
    "recommended_action": "DOOR_TO_DOOR_FIRST",
    "cluster_centroid_lat": 51.222776,
    "cluster_centroid_lon": 6.618163,
    "_v2_generated_at": "2026-05-17T19:34:43.770725+00:00",
    "_v2_buildings_in_pbf": 19,
    "_v2_housenumber_coverage": 1.0
  },
  {
    "cluster_id": "K_040",
    "segment_id": "KAARST_OSM_41564",
    "primary_street": "Am Wasserwerk",
    "house_range": "1 - 26",
    "lead_count": 22,
    "A_count": 8,
    "B_count": 14,
    "unnamed_attached_count": 0,
    "recommended_action": "DOOR_TO_DOOR_FIRST",
    "cluster_centroid_lat": 51.208032,
    "cluster_centroid_lon": 6.592916,
    "_v2_generated_at": "2026-05-17T19:34:43.770765+00:00",
    "_v2_buildings_in_pbf": 22,
    "_v2_housenumber_coverage": 1.0
  },
  {
    "cluster_id": "K_041",
    "segment_id": "KAARST_OSM_41564",
    "primary_street": "Am Winkelter Hof",
    "house_range": "2 - 36",
    "lead_count": 26,
    "A_count": 10,
    "B_count": 16,
    "unnamed_attached_count": 0,
    "recommended_action": "DOOR_TO_DOOR_FIRST",
    "cluster_centroid_lat": 51.23355,
    "cluster_centroid_lon": 6.594269,
    "_v2_generated_at": "2026-05-17T19:34:43.770808+00:00",
    "_v2_buildings_in_pbf": 26,
    "_v2_housenumber_coverage": 1.0
  },
  {
    "cluster_id": "K_042",
    "segment_id": "KAARST_OSM_41564",
    "primary_street": "Amselstraße",
    "house_range": "1a - 5",
    "lead_count": 7,
    "A_count": 2,
    "B_count": 5,
    "unnamed_attached_count": 0,
    "recommended_action": "DESK_REVIEW_FIRST",
    "cluster_centroid_lat": 51.230297,
    "cluster_centroid_lon": 6.604239,
    "_v2_generated_at": "2026-05-17T19:34:43.770829+00:00",
    "_v2_buildings_in_pbf": 7,
    "_v2_housenumber_coverage": 1.0
  },
  {
    "cluster_id": "K_043",
    "segment_id": "KAARST_OSM_41564",
    "primary_street": "An der Alten Mühle",
    "house_range": "1a - 35",
    "lead_count": 44,
    "A_count": 17,
    "B_count": 27,
    "unnamed_attached_count": 0,
    "recommended_action": "DOOR_TO_DOOR_FIRST",
    "cluster_centroid_lat": 51.234373,
    "cluster_centroid_lon": 6.624914,
    "_v2_generated_at": "2026-05-17T19:34:43.770896+00:00",
    "_v2_buildings_in_pbf": 44,
    "_v2_housenumber_coverage": 1.0
  },
  {
    "cluster_id": "K_044",
    "segment_id": "KAARST_OSM_41564",
    "primary_street": "An der Braunsmühle",
    "house_range": "1 - 3",
    "lead_count": 3,
    "A_count": 1,
    "B_count": 2,
    "unnamed_attached_count": 0,
    "recommended_action": "DESK_REVIEW_FIRST",
    "cluster_centroid_lat": 51.197551,
    "cluster_centroid_lon": 6.625221,
    "_v2_generated_at": "2026-05-17T19:34:43.770912+00:00",
    "_v2_buildings_in_pbf": 3,
    "_v2_housenumber_coverage": 1.0
  },
  {
    "cluster_id": "K_045",
    "segment_id": "KAARST_OSM_41564",
    "primary_street": "An der Gümpgesbrücke",
    "house_range": "4 - 36",
    "lead_count": 15,
    "A_count": 6,
    "B_count": 9,
    "unnamed_attached_count": 0,
    "recommended_action": "DOOR_TO_DOOR_FIRST",
    "cluster_centroid_lat": 51.215641,
    "cluster_centroid_lon": 6.636495,
    "_v2_generated_at": "2026-05-17T19:34:43.770940+00:00",
    "_v2_buildings_in_pbf": 15,
    "_v2_housenumber_coverage": 1.0
  },
  {
    "cluster_id": "K_046",
    "segment_id": "KAARST_OSM_41564",
    "primary_street": "An der Lauvenburg",
    "house_range": "2 - 9a",
    "lead_count": 9,
    "A_count": 3,
    "B_count": 6,
    "unnamed_attached_count": 0,
    "recommended_action": "DESK_REVIEW_FIRST",
    "cluster_centroid_lat": 51.2341,
    "cluster_centroid_lon": 6.658273,
    "_v2_generated_at": "2026-05-17T19:34:43.770961+00:00",
    "_v2_buildings_in_pbf": 9,
    "_v2_housenumber_coverage": 1.0
  },
  {
    "cluster_id": "K_047",
    "segment_id": "KAARST_OSM_41564",
    "primary_street": "An der Linde",
    "house_range": "1 - 30",
    "lead_count": 26,
    "A_count": 10,
    "B_count": 16,
    "unnamed_attached_count": 0,
    "recommended_action": "DOOR_TO_DOOR_FIRST",
    "cluster_centroid_lat": 51.195637,
    "cluster_centroid_lon": 6.597631,
    "_v2_generated_at": "2026-05-17T19:34:43.771005+00:00",
    "_v2_buildings_in_pbf": 26,
    "_v2_housenumber_coverage": 1.0
  },
  {
    "cluster_id": "K_048",
    "segment_id": "KAARST_OSM_41564",
    "primary_street": "An der Schmackertz Kull",
    "house_range": "2 - 11",
    "lead_count": 8,
    "A_count": 3,
    "B_count": 5,
    "unnamed_attached_count": 0,
    "recommended_action": "DESK_REVIEW_FIRST",
    "cluster_centroid_lat": 51.228945,
    "cluster_centroid_lon": 6.618301,
    "_v2_generated_at": "2026-05-17T19:34:43.771024+00:00",
    "_v2_buildings_in_pbf": 8,
    "_v2_housenumber_coverage": 1.0
  },
  {
    "cluster_id": "K_049",
    "segment_id": "KAARST_OSM_41564",
    "primary_street": "Anemonenweg",
    "house_range": "1 - 7",
    "lead_count": 7,
    "A_count": 2,
    "B_count": 5,
    "unnamed_attached_count": 0,
    "recommended_action": "DESK_REVIEW_FIRST",
    "cluster_centroid_lat": 51.228704,
    "cluster_centroid_lon": 6.629455,
    "_v2_generated_at": "2026-05-17T19:34:43.771042+00:00",
    "_v2_buildings_in_pbf": 7,
    "_v2_housenumber_coverage": 1.0
  },
  {
    "cluster_id": "K_050",
    "segment_id": "KAARST_OSM_41564",
    "primary_street": "Antoniusplatz",
    "house_range": "2 - 27",
    "lead_count": 10,
    "A_count": 4,
    "B_count": 6,
    "unnamed_attached_count": 0,
    "recommended_action": "DESK_REVIEW_FIRST",
    "cluster_centroid_lat": 51.213998,
    "cluster_centroid_lon": 6.583491,
    "_v2_generated_at": "2026-05-17T19:34:43.771067+00:00",
    "_v2_buildings_in_pbf": 10,
    "_v2_housenumber_coverage": 1.0
  },
  {
    "cluster_id": "K_051",
    "segment_id": "KAARST_OSM_41564",
    "primary_street": "Antoniusstraße",
    "house_range": "2 - 83",
    "lead_count": 31,
    "A_count": 12,
    "B_count": 19,
    "unnamed_attached_count": 0,
    "recommended_action": "DOOR_TO_DOOR_FIRST",
    "cluster_centroid_lat": 51.215195,
    "cluster_centroid_lon": 6.583223,
    "_v2_generated_at": "2026-05-17T19:34:43.771118+00:00",
    "_v2_buildings_in_pbf": 31,
    "_v2_housenumber_coverage": 1.0
  },
  {
    "cluster_id": "K_052",
    "segment_id": "KAARST_OSM_41564",
    "primary_street": "Asternweg",
    "house_range": "1b - 25",
    "lead_count": 20,
    "A_count": 8,
    "B_count": 12,
    "unnamed_attached_count": 0,
    "recommended_action": "DOOR_TO_DOOR_FIRST",
    "cluster_centroid_lat": 51.228512,
    "cluster_centroid_lon": 6.631658,
    "_v2_generated_at": "2026-05-17T19:34:43.771155+00:00",
    "_v2_buildings_in_pbf": 20,
    "_v2_housenumber_coverage": 1.0
  },
  {
    "cluster_id": "K_053",
    "segment_id": "KAARST_OSM_41564",
    "primary_street": "Astrid-Lindgren-Straße",
    "house_range": "3 - 34",
    "lead_count": 27,
    "A_count": 10,
    "B_count": 17,
    "unnamed_attached_count": 0,
    "recommended_action": "DOOR_TO_DOOR_FIRST",
    "cluster_centroid_lat": 51.234736,
    "cluster_centroid_lon": 6.608171,
    "_v2_generated_at": "2026-05-17T19:34:43.771199+00:00",
    "_v2_buildings_in_pbf": 27,
    "_v2_housenumber_coverage": 1.0
  },
  {
    "cluster_id": "K_054",
    "segment_id": "KAARST_OSM_41564",
    "primary_street": "Auf dem Rott",
    "house_range": "1 - 38",
    "lead_count": 22,
    "A_count": 8,
    "B_count": 14,
    "unnamed_attached_count": 0,
    "recommended_action": "DOOR_TO_DOOR_FIRST",
    "cluster_centroid_lat": 51.215916,
    "cluster_centroid_lon": 6.582574,
    "_v2_generated_at": "2026-05-17T19:34:43.771237+00:00",
    "_v2_buildings_in_pbf": 22,
    "_v2_housenumber_coverage": 1.0
  },
  {
    "cluster_id": "K_055",
    "segment_id": "KAARST_OSM_41564",
    "primary_street": "Auf der Höhe",
    "house_range": "2 - 16",
    "lead_count": 9,
    "A_count": 3,
    "B_count": 6,
    "unnamed_attached_count": 0,
    "recommended_action": "DESK_REVIEW_FIRST",
    "cluster_centroid_lat": 51.205818,
    "cluster_centroid_lon": 6.591039,
    "_v2_generated_at": "2026-05-17T19:34:43.771259+00:00",
    "_v2_buildings_in_pbf": 9,
    "_v2_housenumber_coverage": 1.0
  },
  {
    "cluster_id": "K_056",
    "segment_id": "KAARST_OSM_41564",
    "primary_street": "Auf der Wiese",
    "house_range": "4 - 28",
    "lead_count": 19,
    "A_count": 7,
    "B_count": 12,
    "unnamed_attached_count": 0,
    "recommended_action": "DOOR_TO_DOOR_FIRST",
    "cluster_centroid_lat": 51.207122,
    "cluster_centroid_lon": 6.58969,
    "_v2_generated_at": "2026-05-17T19:34:43.771293+00:00",
    "_v2_buildings_in_pbf": 19,
    "_v2_housenumber_coverage": 1.0
  },
  {
    "cluster_id": "K_057",
    "segment_id": "KAARST_OSM_41564",
    "primary_street": "August-Thyssen-Straße",
    "house_range": "1 - 12",
    "lead_count": 7,
    "A_count": 2,
    "B_count": 5,
    "unnamed_attached_count": 0,
    "recommended_action": "DESK_REVIEW_FIRST",
    "cluster_centroid_lat": 51.213103,
    "cluster_centroid_lon": 6.633741,
    "_v2_generated_at": "2026-05-17T19:34:43.771312+00:00",
    "_v2_buildings_in_pbf": 7,
    "_v2_housenumber_coverage": 1.0
  },
  {
    "cluster_id": "K_058",
    "segment_id": "KAARST_OSM_41564",
    "primary_street": "Augustinusstraße",
    "house_range": "1 - 12",
    "lead_count": 11,
    "A_count": 4,
    "B_count": 7,
    "unnamed_attached_count": 0,
    "recommended_action": "DOOR_TO_DOOR_FIRST",
    "cluster_centroid_lat": 51.199715,
    "cluster_centroid_lon": 6.601788,
    "_v2_generated_at": "2026-05-17T19:34:43.771336+00:00",
    "_v2_buildings_in_pbf": 11,
    "_v2_housenumber_coverage": 1.0
  },
  {
    "cluster_id": "K_059",
    "segment_id": "KAARST_OSM_41564",
    "primary_street": "Austernweg",
    "house_range": "1 - 4",
    "lead_count": 4,
    "A_count": 1,
    "B_count": 3,
    "unnamed_attached_count": 0,
    "recommended_action": "DESK_REVIEW_FIRST",
    "cluster_centroid_lat": 51.224028,
    "cluster_centroid_lon": 6.585865,
    "_v2_generated_at": "2026-05-17T19:34:43.771350+00:00",
    "_v2_buildings_in_pbf": 4,
    "_v2_housenumber_coverage": 1.0
  },
  {
    "cluster_id": "K_060",
    "segment_id": "KAARST_OSM_41564",
    "primary_street": "Azaleenweg",
    "house_range": "1 - 8",
    "lead_count": 8,
    "A_count": 3,
    "B_count": 5,
    "unnamed_attached_count": 0,
    "recommended_action": "DESK_REVIEW_FIRST",
    "cluster_centroid_lat": 51.22893,
    "cluster_centroid_lon": 6.624746,
    "_v2_generated_at": "2026-05-17T19:34:43.771371+00:00",
    "_v2_buildings_in_pbf": 8,
    "_v2_housenumber_coverage": 1.0
  },
  {
    "cluster_id": "K_061",
    "segment_id": "KAARST_OSM_41564",
    "primary_street": "Bachstraße",
    "house_range": "2 - 30",
    "lead_count": 16,
    "A_count": 6,
    "B_count": 10,
    "unnamed_attached_count": 0,
    "recommended_action": "DOOR_TO_DOOR_FIRST",
    "cluster_centroid_lat": 51.193845,
    "cluster_centroid_lon": 6.60671,
    "_v2_generated_at": "2026-05-17T19:34:43.771402+00:00",
    "_v2_buildings_in_pbf": 16,
    "_v2_housenumber_coverage": 1.0
  },
  {
    "cluster_id": "K_062",
    "segment_id": "KAARST_OSM_41564",
    "primary_street": "Bad Flinsberger-Straße",
    "house_range": "1 - 14",
    "lead_count": 9,
    "A_count": 3,
    "B_count": 6,
    "unnamed_attached_count": 0,
    "recommended_action": "DESK_REVIEW_FIRST",
    "cluster_centroid_lat": 51.220548,
    "cluster_centroid_lon": 6.597758,
    "_v2_generated_at": "2026-05-17T19:34:43.771422+00:00",
    "_v2_buildings_in_pbf": 9,
    "_v2_housenumber_coverage": 1.0
  },
  {
    "cluster_id": "K_063",
    "segment_id": "KAARST_OSM_41564",
    "primary_street": "Badeniastraße",
    "house_range": "1a - 21a",
    "lead_count": 13,
    "A_count": 5,
    "B_count": 8,
    "unnamed_attached_count": 0,
    "recommended_action": "DOOR_TO_DOOR_FIRST",
    "cluster_centroid_lat": 51.221953,
    "cluster_centroid_lon": 6.628599,
    "_v2_generated_at": "2026-05-17T19:34:43.771451+00:00",
    "_v2_buildings_in_pbf": 13,
    "_v2_housenumber_coverage": 1.0
  },
  {
    "cluster_id": "K_064",
    "segment_id": "KAARST_OSM_GENERAL",
    "primary_street": "Badeniastraße",
    "house_range": "5a - 28",
    "lead_count": 16,
    "A_count": 6,
    "B_count": 10,
    "unnamed_attached_count": 0,
    "recommended_action": "DOOR_TO_DOOR_FIRST",
    "cluster_centroid_lat": 51.222734,
    "cluster_centroid_lon": 6.628197,
    "_v2_generated_at": "2026-05-17T19:34:43.771481+00:00",
    "_v2_buildings_in_pbf": 16,
    "_v2_housenumber_coverage": 1.0
  },
  {
    "cluster_id": "K_065",
    "segment_id": "KAARST_OSM_41564",
    "primary_street": "Badenstraße",
    "house_range": "1 - 15",
    "lead_count": 14,
    "A_count": 5,
    "B_count": 9,
    "unnamed_attached_count": 0,
    "recommended_action": "DOOR_TO_DOOR_FIRST",
    "cluster_centroid_lat": 51.214235,
    "cluster_centroid_lon": 6.57727,
    "_v2_generated_at": "2026-05-17T19:34:43.771510+00:00",
    "_v2_buildings_in_pbf": 14,
    "_v2_housenumber_coverage": 1.0
  },
  {
    "cluster_id": "K_066",
    "segment_id": "KAARST_OSM_41564",
    "primary_street": "Bahnstraße",
    "house_range": "7 - 28",
    "lead_count": 14,
    "A_count": 5,
    "B_count": 9,
    "unnamed_attached_count": 0,
    "recommended_action": "DOOR_TO_DOOR_FIRST",
    "cluster_centroid_lat": 51.196604,
    "cluster_centroid_lon": 6.607274,
    "_v2_generated_at": "2026-05-17T19:34:43.771537+00:00",
    "_v2_buildings_in_pbf": 14,
    "_v2_housenumber_coverage": 1.0
  },
  {
    "cluster_id": "K_067",
    "segment_id": "KAARST_OSM_41564",
    "primary_street": "Bamberger Weg",
    "house_range": "1 - 8",
    "lead_count": 8,
    "A_count": 3,
    "B_count": 5,
    "unnamed_attached_count": 0,
    "recommended_action": "DESK_REVIEW_FIRST",
    "cluster_centroid_lat": 51.22141,
    "cluster_centroid_lon": 6.627288,
    "_v2_generated_at": "2026-05-17T19:34:43.771556+00:00",
    "_v2_buildings_in_pbf": 8,
    "_v2_housenumber_coverage": 1.0
  },
  {
    "cluster_id": "K_068",
    "segment_id": "KAARST_OSM_41564",
    "primary_street": "Bataverstraße",
    "house_range": "1 - 18",
    "lead_count": 3,
    "A_count": 1,
    "B_count": 2,
    "unnamed_attached_count": 0,
    "recommended_action": "DESK_REVIEW_FIRST",
    "cluster_centroid_lat": 51.200474,
    "cluster_centroid_lon": 6.61118,
    "_v2_generated_at": "2026-05-17T19:34:43.771572+00:00",
    "_v2_buildings_in_pbf": 3,
    "_v2_housenumber_coverage": 1.0
  },
  {
    "cluster_id": "K_069",
    "segment_id": "KAARST_OSM_41564",
    "primary_street": "Bayernstraße",
    "house_range": "7 - 13",
    "lead_count": 4,
    "A_count": 1,
    "B_count": 3,
    "unnamed_attached_count": 0,
    "recommended_action": "DESK_REVIEW_FIRST",
    "cluster_centroid_lat": 51.213982,
    "cluster_centroid_lon": 6.576994,
    "_v2_generated_at": "2026-05-17T19:34:43.771586+00:00",
    "_v2_buildings_in_pbf": 4,
    "_v2_housenumber_coverage": 1.0
  },
  {
    "cluster_id": "K_070",
    "segment_id": "KAARST_OSM_41564",
    "primary_street": "Beethovenstraße",
    "house_range": "1 - 6",
    "lead_count": 6,
    "A_count": 2,
    "B_count": 4,
    "unnamed_attached_count": 0,
    "recommended_action": "DESK_REVIEW_FIRST",
    "cluster_centroid_lat": 51.192376,
    "cluster_centroid_lon": 6.607743,
    "_v2_generated_at": "2026-05-17T19:34:43.771605+00:00",
    "_v2_buildings_in_pbf": 6,
    "_v2_housenumber_coverage": 1.0
  },
  {
    "cluster_id": "K_071",
    "segment_id": "KAARST_OSM_41564",
    "primary_street": "Begonienweg",
    "house_range": "1 - 5",
    "lead_count": 5,
    "A_count": 2,
    "B_count": 3,
    "unnamed_attached_count": 0,
    "recommended_action": "DESK_REVIEW_FIRST",
    "cluster_centroid_lat": 51.230548,
    "cluster_centroid_lon": 6.627247,
    "_v2_generated_at": "2026-05-17T19:34:43.771620+00:00",
    "_v2_buildings_in_pbf": 5,
    "_v2_housenumber_coverage": 1.0
  },
  {
    "cluster_id": "K_072",
    "segment_id": "KAARST_OSM_41564",
    "primary_street": "Benatekstraße",
    "house_range": "1 - 32",
    "lead_count": 20,
    "A_count": 8,
    "B_count": 12,
    "unnamed_attached_count": 0,
    "recommended_action": "DOOR_TO_DOOR_FIRST",
    "cluster_centroid_lat": 51.195315,
    "cluster_centroid_lon": 6.599633,
    "_v2_generated_at": "2026-05-17T19:34:43.771656+00:00",
    "_v2_buildings_in_pbf": 20,
    "_v2_housenumber_coverage": 1.0
  },
  {
    "cluster_id": "K_073",
    "segment_id": "KAARST_OSM_41564",
    "primary_street": "Benediktusstraße",
    "house_range": "1 - 33a",
    "lead_count": 7,
    "A_count": 2,
    "B_count": 5,
    "unnamed_attached_count": 0,
    "recommended_action": "DESK_REVIEW_FIRST",
    "cluster_centroid_lat": 51.199779,
    "cluster_centroid_lon": 6.60399,
    "_v2_generated_at": "2026-05-17T19:34:43.771675+00:00",
    "_v2_buildings_in_pbf": 7,
    "_v2_housenumber_coverage": 1.0
  },
  {
    "cluster_id": "K_074",
    "segment_id": "KAARST_OSM_41564",
    "primary_street": "Bergerfurthstraße",
    "house_range": "1 - 14",
    "lead_count": 14,
    "A_count": 5,
    "B_count": 9,
    "unnamed_attached_count": 0,
    "recommended_action": "DOOR_TO_DOOR_FIRST",
    "cluster_centroid_lat": 51.233692,
    "cluster_centroid_lon": 6.619606,
    "_v2_generated_at": "2026-05-17T19:34:43.771702+00:00",
    "_v2_buildings_in_pbf": 14,
    "_v2_housenumber_coverage": 1.0
  },
  {
    "cluster_id": "K_075",
    "segment_id": "KAARST_OSM_41564",
    "primary_street": "Bernsteinweg",
    "house_range": "1 - 11",
    "lead_count": 8,
    "A_count": 3,
    "B_count": 5,
    "unnamed_attached_count": 0,
    "recommended_action": "DESK_REVIEW_FIRST",
    "cluster_centroid_lat": 51.214764,
    "cluster_centroid_lon": 6.619586,
    "_v2_generated_at": "2026-05-17T19:34:43.771721+00:00",
    "_v2_buildings_in_pbf": 8,
    "_v2_housenumber_coverage": 1.0
  },
  {
    "cluster_id": "K_076",
    "segment_id": "KAARST_OSM_41564",
    "primary_street": "Beuthener Straße",
    "house_range": "1 - 17",
    "lead_count": 5,
    "A_count": 2,
    "B_count": 3,
    "unnamed_attached_count": 0,
    "recommended_action": "DESK_REVIEW_FIRST",
    "cluster_centroid_lat": 51.221764,
    "cluster_centroid_lon": 6.603772,
    "_v2_generated_at": "2026-05-17T19:34:43.771737+00:00",
    "_v2_buildings_in_pbf": 5,
    "_v2_housenumber_coverage": 1.0
  },
  {
    "cluster_id": "K_077",
    "segment_id": "KAARST_OSM_41564",
    "primary_street": "Biberstraße",
    "house_range": "1 - 7",
    "lead_count": 4,
    "A_count": 1,
    "B_count": 3,
    "unnamed_attached_count": 0,
    "recommended_action": "DESK_REVIEW_FIRST",
    "cluster_centroid_lat": 51.229527,
    "cluster_centroid_lon": 6.59146,
    "_v2_generated_at": "2026-05-17T19:34:43.771754+00:00",
    "_v2_buildings_in_pbf": 4,
    "_v2_housenumber_coverage": 1.0
  },
  {
    "cluster_id": "K_078",
    "segment_id": "KAARST_OSM_41564",
    "primary_street": "Birkenstraße",
    "house_range": "1 - 21",
    "lead_count": 21,
    "A_count": 8,
    "B_count": 13,
    "unnamed_attached_count": 0,
    "recommended_action": "DOOR_TO_DOOR_FIRST",
    "cluster_centroid_lat": 51.219015,
    "cluster_centroid_lon": 6.608888,
    "_v2_generated_at": "2026-05-17T19:34:43.771791+00:00",
    "_v2_buildings_in_pbf": 21,
    "_v2_housenumber_coverage": 1.0
  },
  {
    "cluster_id": "K_079",
    "segment_id": "KAARST_OSM_41564",
    "primary_street": "Birkhofstraße",
    "house_range": "1 - 55",
    "lead_count": 34,
    "A_count": 13,
    "B_count": 21,
    "unnamed_attached_count": 0,
    "recommended_action": "DOOR_TO_DOOR_FIRST",
    "cluster_centroid_lat": 51.195895,
    "cluster_centroid_lon": 6.601744,
    "_v2_generated_at": "2026-05-17T19:34:43.771846+00:00",
    "_v2_buildings_in_pbf": 34,
    "_v2_housenumber_coverage": 1.0
  },
  {
    "cluster_id": "K_080",
    "segment_id": "KAARST_OSM_41564",
    "primary_street": "Bismarckstraße",
    "house_range": "1 - 102",
    "lead_count": 63,
    "A_count": 25,
    "B_count": 38,
    "unnamed_attached_count": 0,
    "recommended_action": "DOOR_TO_DOOR_FIRST",
    "cluster_centroid_lat": 51.218103,
    "cluster_centroid_lon": 6.604708,
    "_v2_generated_at": "2026-05-17T19:34:43.771941+00:00",
    "_v2_buildings_in_pbf": 63,
    "_v2_housenumber_coverage": 1.0
  },
  {
    "cluster_id": "K_081",
    "segment_id": "KAARST_OSM_41564",
    "primary_street": "Blumenstraße",
    "house_range": "1b - 33",
    "lead_count": 41,
    "A_count": 16,
    "B_count": 25,
    "unnamed_attached_count": 0,
    "recommended_action": "DOOR_TO_DOOR_FIRST",
    "cluster_centroid_lat": 51.227997,
    "cluster_centroid_lon": 6.625465,
    "_v2_generated_at": "2026-05-17T19:34:43.772004+00:00",
    "_v2_buildings_in_pbf": 41,
    "_v2_housenumber_coverage": 1.0
  },
  {
    "cluster_id": "K_082",
    "segment_id": "KAARST_OSM_41564",
    "primary_street": "Blücherstraße",
    "house_range": "1 - 22a",
    "lead_count": 22,
    "A_count": 8,
    "B_count": 14,
    "unnamed_attached_count": 0,
    "recommended_action": "DOOR_TO_DOOR_FIRST",
    "cluster_centroid_lat": 51.198875,
    "cluster_centroid_lon": 6.603276,
    "_v2_generated_at": "2026-05-17T19:34:43.772043+00:00",
    "_v2_buildings_in_pbf": 22,
    "_v2_housenumber_coverage": 1.0
  },
  {
    "cluster_id": "K_083",
    "segment_id": "KAARST_OSM_41564",
    "primary_street": "Bonner Straße",
    "house_range": "1 - 29",
    "lead_count": 24,
    "A_count": 9,
    "B_count": 15,
    "unnamed_attached_count": 0,
    "recommended_action": "DOOR_TO_DOOR_FIRST",
    "cluster_centroid_lat": 51.19553,
    "cluster_centroid_lon": 6.612321,
    "_v2_generated_at": "2026-05-17T19:34:43.772083+00:00",
    "_v2_buildings_in_pbf": 24,
    "_v2_housenumber_coverage": 1.0
  },
  {
    "cluster_id": "K_084",
    "segment_id": "KAARST_OSM_41564",
    "primary_street": "Brahmsstraße",
    "house_range": "2 - 20",
    "lead_count": 9,
    "A_count": 3,
    "B_count": 6,
    "unnamed_attached_count": 0,
    "recommended_action": "DESK_REVIEW_FIRST",
    "cluster_centroid_lat": 51.191873,
    "cluster_centroid_lon": 6.605078,
    "_v2_generated_at": "2026-05-17T19:34:43.772105+00:00",
    "_v2_buildings_in_pbf": 9,
    "_v2_housenumber_coverage": 1.0
  },
  {
    "cluster_id": "K_085",
    "segment_id": "KAARST_OSM_41564",
    "primary_street": "Breslauer Straße",
    "house_range": "1 - 18-22",
    "lead_count": 19,
    "A_count": 7,
    "B_count": 12,
    "unnamed_attached_count": 0,
    "recommended_action": "DOOR_TO_DOOR_FIRST",
    "cluster_centroid_lat": 51.220191,
    "cluster_centroid_lon": 6.602071,
    "_v2_generated_at": "2026-05-17T19:34:43.772139+00:00",
    "_v2_buildings_in_pbf": 19,
    "_v2_housenumber_coverage": 1.0
  },
  {
    "cluster_id": "K_086",
    "segment_id": "KAARST_OSM_41564",
    "primary_street": "Broicherdorfstraße",
    "house_range": "1 - 126b",
    "lead_count": 168,
    "A_count": 67,
    "B_count": 101,
    "unnamed_attached_count": 0,
    "recommended_action": "DOOR_TO_DOOR_FIRST",
    "cluster_centroid_lat": 51.229603,
    "cluster_centroid_lon": 6.600676,
    "_v2_generated_at": "2026-05-17T19:34:43.772367+00:00",
    "_v2_buildings_in_pbf": 168,
    "_v2_housenumber_coverage": 1.0
  },
  {
    "cluster_id": "K_087",
    "segment_id": "KAARST_OSM_41564",
    "primary_street": "Broicherseite",
    "house_range": "1 - 18a",
    "lead_count": 17,
    "A_count": 6,
    "B_count": 11,
    "unnamed_attached_count": 0,
    "recommended_action": "DOOR_TO_DOOR_FIRST",
    "cluster_centroid_lat": 51.244111,
    "cluster_centroid_lon": 6.65097,
    "_v2_generated_at": "2026-05-17T19:34:43.772401+00:00",
    "_v2_buildings_in_pbf": 17,
    "_v2_housenumber_coverage": 1.0
  },
  {
    "cluster_id": "K_088",
    "segment_id": "KAARST_OSM_41564",
    "primary_street": "Bruchweg",
    "house_range": "5 - 148",
    "lead_count": 100,
    "A_count": 40,
    "B_count": 60,
    "unnamed_attached_count": 0,
    "recommended_action": "DOOR_TO_DOOR_FIRST",
    "cluster_centroid_lat": 51.216352,
    "cluster_centroid_lon": 6.625105,
    "_v2_generated_at": "2026-05-17T19:34:43.772538+00:00",
    "_v2_buildings_in_pbf": 100,
    "_v2_housenumber_coverage": 1.0
  },
  {
    "cluster_id": "K_089",
    "segment_id": "KAARST_OSM_41564",
    "primary_street": "Brucknerstraße",
    "house_range": "2 - 26",
    "lead_count": 13,
    "A_count": 5,
    "B_count": 8,
    "unnamed_attached_count": 0,
    "recommended_action": "DOOR_TO_DOOR_FIRST",
    "cluster_centroid_lat": 51.192208,
    "cluster_centroid_lon": 6.604186,
    "_v2_generated_at": "2026-05-17T19:34:43.772566+00:00",
    "_v2_buildings_in_pbf": 13,
    "_v2_housenumber_coverage": 1.0
  },
  {
    "cluster_id": "K_090",
    "segment_id": "KAARST_OSM_41564",
    "primary_street": "Bussardstraße",
    "house_range": "1a - 20",
    "lead_count": 12,
    "A_count": 4,
    "B_count": 8,
    "unnamed_attached_count": 0,
    "recommended_action": "DOOR_TO_DOOR_FIRST",
    "cluster_centroid_lat": 51.231815,
    "cluster_centroid_lon": 6.599548,
    "_v2_generated_at": "2026-05-17T19:34:43.772594+00:00",
    "_v2_buildings_in_pbf": 12,
    "_v2_housenumber_coverage": 1.0
  },
  {
    "cluster_id": "K_091",
    "segment_id": "KAARST_OSM_41564",
    "primary_street": "Bäumchensweg",
    "house_range": "4a - 4c",
    "lead_count": 6,
    "A_count": 2,
    "B_count": 4,
    "unnamed_attached_count": 0,
    "recommended_action": "DESK_REVIEW_FIRST",
    "cluster_centroid_lat": 51.209014,
    "cluster_centroid_lon": 6.580702,
    "_v2_generated_at": "2026-05-17T19:34:43.772612+00:00",
    "_v2_buildings_in_pbf": 6,
    "_v2_housenumber_coverage": 1.0
  },
  {
    "cluster_id": "K_092",
    "segment_id": "KAARST_OSM_41564",
    "primary_street": "Böcklinstraße",
    "house_range": "1 - 21",
    "lead_count": 11,
    "A_count": 4,
    "B_count": 7,
    "unnamed_attached_count": 0,
    "recommended_action": "DOOR_TO_DOOR_FIRST",
    "cluster_centroid_lat": 51.199171,
    "cluster_centroid_lon": 6.616168,
    "_v2_generated_at": "2026-05-17T19:34:43.772636+00:00",
    "_v2_buildings_in_pbf": 11,
    "_v2_housenumber_coverage": 1.0
  },
  {
    "cluster_id": "K_093",
    "segment_id": "KAARST_OSM_41564",
    "primary_street": "Büdericher Straße",
    "house_range": "1 - 89",
    "lead_count": 95,
    "A_count": 38,
    "B_count": 57,
    "unnamed_attached_count": 0,
    "recommended_action": "DOOR_TO_DOOR_FIRST",
    "cluster_centroid_lat": 51.235154,
    "cluster_centroid_lon": 6.623206,
    "_v2_generated_at": "2026-05-17T19:34:43.772768+00:00",
    "_v2_buildings_in_pbf": 95,
    "_v2_housenumber_coverage": 1.0
  },
  {
    "cluster_id": "K_094",
    "segment_id": "KAARST_OSM_41564",
    "primary_street": "Büttgener Buscherhöfe",
    "house_range": "2 - 14",
    "lead_count": 6,
    "A_count": 2,
    "B_count": 4,
    "unnamed_attached_count": 0,
    "recommended_action": "DESK_REVIEW_FIRST",
    "cluster_centroid_lat": 51.190563,
    "cluster_centroid_lon": 6.596737,
    "_v2_generated_at": "2026-05-17T19:34:43.772789+00:00",
    "_v2_buildings_in_pbf": 6,
    "_v2_housenumber_coverage": 1.0
  },
  {
    "cluster_id": "K_095",
    "segment_id": "KAARST_OSM_41564",
    "primary_street": "Büttgener Straße",
    "house_range": "1 - 45",
    "lead_count": 39,
    "A_count": 15,
    "B_count": 24,
    "unnamed_attached_count": 0,
    "recommended_action": "DOOR_TO_DOOR_FIRST",
    "cluster_centroid_lat": 51.22478,
    "cluster_centroid_lon": 6.609403,
    "_v2_generated_at": "2026-05-17T19:34:43.772848+00:00",
    "_v2_buildings_in_pbf": 39,
    "_v2_housenumber_coverage": 1.0
  },
  {
    "cluster_id": "K_096",
    "segment_id": "KAARST_OSM_41564",
    "primary_street": "Commerweg",
    "house_range": "2a - 44",
    "lead_count": 24,
    "A_count": 9,
    "B_count": 15,
    "unnamed_attached_count": 0,
    "recommended_action": "DOOR_TO_DOOR_FIRST",
    "cluster_centroid_lat": 51.212904,
    "cluster_centroid_lon": 6.626567,
    "_v2_generated_at": "2026-05-17T19:34:43.772889+00:00",
    "_v2_buildings_in_pbf": 24,
    "_v2_housenumber_coverage": 1.0
  },
  {
    "cluster_id": "K_097",
    "segment_id": "KAARST_OSM_41564",
    "primary_street": "Cranachstraße",
    "house_range": "1 - 7",
    "lead_count": 8,
    "A_count": 3,
    "B_count": 5,
    "unnamed_attached_count": 0,
    "recommended_action": "DESK_REVIEW_FIRST",
    "cluster_centroid_lat": 51.199999,
    "cluster_centroid_lon": 6.61392,
    "_v2_generated_at": "2026-05-17T19:34:43.772908+00:00",
    "_v2_buildings_in_pbf": 8,
    "_v2_housenumber_coverage": 1.0
  },
  {
    "cluster_id": "K_098",
    "segment_id": "KAARST_OSM_41564",
    "primary_street": "Cusanusstraße",
    "house_range": "2a - 36",
    "lead_count": 29,
    "A_count": 11,
    "B_count": 18,
    "unnamed_attached_count": 0,
    "recommended_action": "DOOR_TO_DOOR_FIRST",
    "cluster_centroid_lat": 51.230422,
    "cluster_centroid_lon": 6.62102,
    "_v2_generated_at": "2026-05-17T19:34:43.772952+00:00",
    "_v2_buildings_in_pbf": 29,
    "_v2_housenumber_coverage": 1.0
  },
  {
    "cluster_id": "K_099",
    "segment_id": "KAARST_OSM_41564",
    "primary_street": "Cäcilienstraße",
    "house_range": "1 - 16",
    "lead_count": 13,
    "A_count": 5,
    "B_count": 8,
    "unnamed_attached_count": 0,
    "recommended_action": "DOOR_TO_DOOR_FIRST",
    "cluster_centroid_lat": 51.198458,
    "cluster_centroid_lon": 6.600299,
    "_v2_generated_at": "2026-05-17T19:34:43.772976+00:00",
    "_v2_buildings_in_pbf": 13,
    "_v2_housenumber_coverage": 1.0
  },
  {
    "cluster_id": "K_100",
    "segment_id": "KAARST_OSM_41564",
    "primary_street": "Dachsweg",
    "house_range": "1 - 6",
    "lead_count": 6,
    "A_count": 2,
    "B_count": 4,
    "unnamed_attached_count": 0,
    "recommended_action": "DESK_REVIEW_FIRST",
    "cluster_centroid_lat": 51.230219,
    "cluster_centroid_lon": 6.596826,
    "_v2_generated_at": "2026-05-17T19:34:43.772995+00:00",
    "_v2_buildings_in_pbf": 6,
    "_v2_housenumber_coverage": 1.0
  },
  {
    "cluster_id": "K_101",
    "segment_id": "KAARST_OSM_41564",
    "primary_street": "Dahlienweg",
    "house_range": "1 - 11",
    "lead_count": 11,
    "A_count": 4,
    "B_count": 7,
    "unnamed_attached_count": 0,
    "recommended_action": "DOOR_TO_DOOR_FIRST",
    "cluster_centroid_lat": 51.230745,
    "cluster_centroid_lon": 6.628755,
    "_v2_generated_at": "2026-05-17T19:34:43.773016+00:00",
    "_v2_buildings_in_pbf": 11,
    "_v2_housenumber_coverage": 1.0
  },
  {
    "cluster_id": "K_102",
    "segment_id": "KAARST_OSM_41564",
    "primary_street": "Daimlerstraße",
    "house_range": "7 - 25",
    "lead_count": 14,
    "A_count": 5,
    "B_count": 9,
    "unnamed_attached_count": 0,
    "recommended_action": "DOOR_TO_DOOR_FIRST",
    "cluster_centroid_lat": 51.213145,
    "cluster_centroid_lon": 6.630844,
    "_v2_generated_at": "2026-05-17T19:34:43.773042+00:00",
    "_v2_buildings_in_pbf": 14,
    "_v2_housenumber_coverage": 1.0
  },
  {
    "cluster_id": "K_103",
    "segment_id": "KAARST_OSM_41564",
    "primary_street": "Danziger Straße",
    "house_range": "1b - 58",
    "lead_count": 49,
    "A_count": 19,
    "B_count": 30,
    "unnamed_attached_count": 0,
    "recommended_action": "DOOR_TO_DOOR_FIRST",
    "cluster_centroid_lat": 51.220575,
    "cluster_centroid_lon": 6.635993,
    "_v2_generated_at": "2026-05-17T19:34:43.773110+00:00",
    "_v2_buildings_in_pbf": 49,
    "_v2_housenumber_coverage": 1.0
  },
  {
    "cluster_id": "K_104",
    "segment_id": "KAARST_OSM_41564",
    "primary_street": "Detlev-Karsten-Rohwedder-Straße",
    "house_range": "2 - 7",
    "lead_count": 4,
    "A_count": 1,
    "B_count": 3,
    "unnamed_attached_count": 0,
    "recommended_action": "DESK_REVIEW_FIRST",
    "cluster_centroid_lat": 51.213889,
    "cluster_centroid_lon": 6.638371,
    "_v2_generated_at": "2026-05-17T19:34:43.773125+00:00",
    "_v2_buildings_in_pbf": 4,
    "_v2_housenumber_coverage": 1.0
  },
  {
    "cluster_id": "K_105",
    "segment_id": "KAARST_OSM_41564",
    "primary_street": "Diamantweg",
    "house_range": "2 - 8",
    "lead_count": 6,
    "A_count": 2,
    "B_count": 4,
    "unnamed_attached_count": 0,
    "recommended_action": "DESK_REVIEW_FIRST",
    "cluster_centroid_lat": 51.214577,
    "cluster_centroid_lon": 6.617417,
    "_v2_generated_at": "2026-05-17T19:34:43.773141+00:00",
    "_v2_buildings_in_pbf": 6,
    "_v2_housenumber_coverage": 1.0
  },
  {
    "cluster_id": "K_106",
    "segment_id": "KAARST_OSM_41564",
    "primary_street": "Dortmunder Straße",
    "house_range": "2 - 41",
    "lead_count": 27,
    "A_count": 10,
    "B_count": 17,
    "unnamed_attached_count": 0,
    "recommended_action": "DOOR_TO_DOOR_FIRST",
    "cluster_centroid_lat": 51.194788,
    "cluster_centroid_lon": 6.615761,
    "_v2_generated_at": "2026-05-17T19:34:43.773180+00:00",
    "_v2_buildings_in_pbf": 27,
    "_v2_housenumber_coverage": 1.0
  },
  {
    "cluster_id": "K_107",
    "segment_id": "KAARST_OSM_41564",
    "primary_street": "Dreeskamp",
    "house_range": "1 - 34",
    "lead_count": 23,
    "A_count": 9,
    "B_count": 14,
    "unnamed_attached_count": 0,
    "recommended_action": "DOOR_TO_DOOR_FIRST",
    "cluster_centroid_lat": 51.230895,
    "cluster_centroid_lon": 6.601866,
    "_v2_generated_at": "2026-05-17T19:34:43.773216+00:00",
    "_v2_buildings_in_pbf": 23,
    "_v2_housenumber_coverage": 1.0
  },
  {
    "cluster_id": "K_108",
    "segment_id": "KAARST_OSM_41564",
    "primary_street": "Driescher Straße",
    "house_range": "1 - 35",
    "lead_count": 28,
    "A_count": 11,
    "B_count": 17,
    "unnamed_attached_count": 0,
    "recommended_action": "DOOR_TO_DOOR_FIRST",
    "cluster_centroid_lat": 51.198494,
    "cluster_centroid_lon": 6.606101,
    "_v2_generated_at": "2026-05-17T19:34:43.773255+00:00",
    "_v2_buildings_in_pbf": 28,
    "_v2_housenumber_coverage": 0.964
  },
  {
    "cluster_id": "K_109",
    "segment_id": "KAARST_OSM_41564",
    "primary_street": "Driescherfeld",
    "house_range": "1 - 24",
    "lead_count": 26,
    "A_count": 10,
    "B_count": 16,
    "unnamed_attached_count": 0,
    "recommended_action": "DOOR_TO_DOOR_FIRST",
    "cluster_centroid_lat": 51.205668,
    "cluster_centroid_lon": 6.592936,
    "_v2_generated_at": "2026-05-17T19:34:43.773295+00:00",
    "_v2_buildings_in_pbf": 26,
    "_v2_housenumber_coverage": 1.0
  },
  {
    "cluster_id": "K_110",
    "segment_id": "KAARST_OSM_41564",
    "primary_street": "Drosselstraße",
    "house_range": "1b - 22",
    "lead_count": 23,
    "A_count": 9,
    "B_count": 14,
    "unnamed_attached_count": 0,
    "recommended_action": "DOOR_TO_DOOR_FIRST",
    "cluster_centroid_lat": 51.229086,
    "cluster_centroid_lon": 6.605579,
    "_v2_generated_at": "2026-05-17T19:34:43.773333+00:00",
    "_v2_buildings_in_pbf": 23,
    "_v2_housenumber_coverage": 1.0
  },
  {
    "cluster_id": "K_111",
    "segment_id": "KAARST_OSM_41564",
    "primary_street": "Duisburger Straße",
    "house_range": "3 - 22",
    "lead_count": 20,
    "A_count": 8,
    "B_count": 12,
    "unnamed_attached_count": 0,
    "recommended_action": "DOOR_TO_DOOR_FIRST",
    "cluster_centroid_lat": 51.19331,
    "cluster_centroid_lon": 6.614355,
    "_v2_generated_at": "2026-05-17T19:34:43.773368+00:00",
    "_v2_buildings_in_pbf": 20,
    "_v2_housenumber_coverage": 1.0
  },
  {
    "cluster_id": "K_112",
    "segment_id": "KAARST_OSM_41564",
    "primary_street": "Dycker Straße",
    "house_range": "1 - 24",
    "lead_count": 24,
    "A_count": 9,
    "B_count": 15,
    "unnamed_attached_count": 0,
    "recommended_action": "DOOR_TO_DOOR_FIRST",
    "cluster_centroid_lat": 51.218038,
    "cluster_centroid_lon": 6.619373,
    "_v2_generated_at": "2026-05-17T19:34:43.773406+00:00",
    "_v2_buildings_in_pbf": 24,
    "_v2_housenumber_coverage": 1.0
  },
  {
    "cluster_id": "K_113",
    "segment_id": "KAARST_OSM_41564",
    "primary_street": "Dürerstraße",
    "house_range": "1 - 20",
    "lead_count": 20,
    "A_count": 8,
    "B_count": 12,
    "unnamed_attached_count": 0,
    "recommended_action": "DOOR_TO_DOOR_FIRST",
    "cluster_centroid_lat": 51.198663,
    "cluster_centroid_lon": 6.615192,
    "_v2_generated_at": "2026-05-17T19:34:43.773438+00:00",
    "_v2_buildings_in_pbf": 20,
    "_v2_housenumber_coverage": 1.0
  },
  {
    "cluster_id": "K_114",
    "segment_id": "KAARST_OSM_41564",
    "primary_street": "Düsseldorfer Straße",
    "house_range": "3 - 28",
    "lead_count": 26,
    "A_count": 10,
    "B_count": 16,
    "unnamed_attached_count": 0,
    "recommended_action": "DOOR_TO_DOOR_FIRST",
    "cluster_centroid_lat": 51.192625,
    "cluster_centroid_lon": 6.61346,
    "_v2_generated_at": "2026-05-17T19:34:43.773477+00:00",
    "_v2_buildings_in_pbf": 26,
    "_v2_housenumber_coverage": 1.0
  },
  {
    "cluster_id": "K_115",
    "segment_id": "KAARST_OSM_41564",
    "primary_street": "Düsselstraße",
    "house_range": "3 - 21",
    "lead_count": 12,
    "A_count": 4,
    "B_count": 8,
    "unnamed_attached_count": 0,
    "recommended_action": "DOOR_TO_DOOR_FIRST",
    "cluster_centroid_lat": 51.218775,
    "cluster_centroid_lon": 6.624575,
    "_v2_generated_at": "2026-05-17T19:34:43.773499+00:00",
    "_v2_buildings_in_pbf": 12,
    "_v2_housenumber_coverage": 1.0
  },
  {
    "cluster_id": "K_116",
    "segment_id": "KAARST_OSM_41564",
    "primary_street": "Edelweißstraße",
    "house_range": "3 - 136",
    "lead_count": 87,
    "A_count": 34,
    "B_count": 53,
    "unnamed_attached_count": 0,
    "recommended_action": "DOOR_TO_DOOR_FIRST",
    "cluster_centroid_lat": 51.220902,
    "cluster_centroid_lon": 6.611076,
    "_v2_generated_at": "2026-05-17T19:34:43.773608+00:00",
    "_v2_buildings_in_pbf": 87,
    "_v2_housenumber_coverage": 1.0
  },
  {
    "cluster_id": "K_117",
    "segment_id": "KAARST_OSM_41564",
    "primary_street": "Edelweißweg",
    "house_range": "1 - 4",
    "lead_count": 4,
    "A_count": 1,
    "B_count": 3,
    "unnamed_attached_count": 0,
    "recommended_action": "DESK_REVIEW_FIRST",
    "cluster_centroid_lat": 51.229945,
    "cluster_centroid_lon": 6.627137,
    "_v2_generated_at": "2026-05-17T19:34:43.773623+00:00",
    "_v2_buildings_in_pbf": 4,
    "_v2_housenumber_coverage": 1.0
  },
  {
    "cluster_id": "K_118",
    "segment_id": "KAARST_OSM_41564",
    "primary_street": "Edith-Stein-Straße",
    "house_range": "1 - 5",
    "lead_count": 5,
    "A_count": 2,
    "B_count": 3,
    "unnamed_attached_count": 0,
    "recommended_action": "DESK_REVIEW_FIRST",
    "cluster_centroid_lat": 51.214873,
    "cluster_centroid_lon": 6.578341,
    "_v2_generated_at": "2026-05-17T19:34:43.773638+00:00",
    "_v2_buildings_in_pbf": 5,
    "_v2_housenumber_coverage": 1.0
  },
  {
    "cluster_id": "K_119",
    "segment_id": "KAARST_OSM_41564",
    "primary_street": "Effertzfeld",
    "house_range": "1 - 55",
    "lead_count": 41,
    "A_count": 16,
    "B_count": 25,
    "unnamed_attached_count": 0,
    "recommended_action": "DOOR_TO_DOOR_FIRST",
    "cluster_centroid_lat": 51.221104,
    "cluster_centroid_lon": 6.618315,
    "_v2_generated_at": "2026-05-17T19:34:43.773693+00:00",
    "_v2_buildings_in_pbf": 41,
    "_v2_housenumber_coverage": 1.0
  },
  {
    "cluster_id": "K_120",
    "segment_id": "KAARST_OSM_GENERAL",
    "primary_street": "Eibenweg",
    "house_range": "1 - 27",
    "lead_count": 14,
    "A_count": 5,
    "B_count": 9,
    "unnamed_attached_count": 0,
    "recommended_action": "DOOR_TO_DOOR_FIRST",
    "cluster_centroid_lat": 51.217761,
    "cluster_centroid_lon": 6.607529,
    "_v2_generated_at": "2026-05-17T19:34:43.773720+00:00",
    "_v2_buildings_in_pbf": 14,
    "_v2_housenumber_coverage": 1.0
  },
  {
    "cluster_id": "K_121",
    "segment_id": "KAARST_OSM_41564",
    "primary_street": "Eichendorffstraße",
    "house_range": "1 - 64",
    "lead_count": 56,
    "A_count": 22,
    "B_count": 34,
    "unnamed_attached_count": 0,
    "recommended_action": "DOOR_TO_DOOR_FIRST",
    "cluster_centroid_lat": 51.228988,
    "cluster_centroid_lon": 6.61026,
    "_v2_generated_at": "2026-05-17T19:34:43.773794+00:00",
    "_v2_buildings_in_pbf": 56,
    "_v2_housenumber_coverage": 1.0
  },
  {
    "cluster_id": "K_122",
    "segment_id": "KAARST_OSM_GENERAL",
    "primary_street": "Eichenweg",
    "house_range": "1 - 7",
    "lead_count": 7,
    "A_count": 2,
    "B_count": 5,
    "unnamed_attached_count": 0,
    "recommended_action": "DESK_REVIEW_FIRST",
    "cluster_centroid_lat": 51.219031,
    "cluster_centroid_lon": 6.611026,
    "_v2_generated_at": "2026-05-17T19:34:43.773811+00:00",
    "_v2_buildings_in_pbf": 7,
    "_v2_housenumber_coverage": 1.0
  },
  {
    "cluster_id": "K_123",
    "segment_id": "KAARST_OSM_41564",
    "primary_street": "Einsteinstraße",
    "house_range": "1 - 10",
    "lead_count": 9,
    "A_count": 3,
    "B_count": 6,
    "unnamed_attached_count": 0,
    "recommended_action": "DESK_REVIEW_FIRST",
    "cluster_centroid_lat": 51.224444,
    "cluster_centroid_lon": 6.610799,
    "_v2_generated_at": "2026-05-17T19:34:43.773830+00:00",
    "_v2_buildings_in_pbf": 9,
    "_v2_housenumber_coverage": 1.0
  },
  {
    "cluster_id": "K_124",
    "segment_id": "KAARST_OSM_41564",
    "primary_street": "Elbinger Weg",
    "house_range": "1 - 12",
    "lead_count": 10,
    "A_count": 4,
    "B_count": 6,
    "unnamed_attached_count": 0,
    "recommended_action": "DESK_REVIEW_FIRST",
    "cluster_centroid_lat": 51.221776,
    "cluster_centroid_lon": 6.634523,
    "_v2_generated_at": "2026-05-17T19:34:43.773850+00:00",
    "_v2_buildings_in_pbf": 10,
    "_v2_housenumber_coverage": 1.0
  },
  {
    "cluster_id": "K_125",
    "segment_id": "KAARST_OSM_41564",
    "primary_street": "Elchstraße",
    "house_range": "1 - 26",
    "lead_count": 21,
    "A_count": 8,
    "B_count": 13,
    "unnamed_attached_count": 0,
    "recommended_action": "DOOR_TO_DOOR_FIRST",
    "cluster_centroid_lat": 51.230933,
    "cluster_centroid_lon": 6.594752,
    "_v2_generated_at": "2026-05-17T19:34:43.773883+00:00",
    "_v2_buildings_in_pbf": 21,
    "_v2_housenumber_coverage": 1.0
  },
  {
    "cluster_id": "K_126",
    "segment_id": "KAARST_OSM_41564",
    "primary_street": "Elisabethstraße",
    "house_range": "1 - 16",
    "lead_count": 16,
    "A_count": 6,
    "B_count": 10,
    "unnamed_attached_count": 0,
    "recommended_action": "DOOR_TO_DOOR_FIRST",
    "cluster_centroid_lat": 51.19915,
    "cluster_centroid_lon": 6.59987,
    "_v2_generated_at": "2026-05-17T19:34:43.773913+00:00",
    "_v2_buildings_in_pbf": 16,
    "_v2_housenumber_coverage": 1.0
  },
  {
    "cluster_id": "K_127",
    "segment_id": "KAARST_OSM_41564",
    "primary_street": "Enzianweg",
    "house_range": "1 - 12",
    "lead_count": 13,
    "A_count": 5,
    "B_count": 8,
    "unnamed_attached_count": 0,
    "recommended_action": "DOOR_TO_DOOR_FIRST",
    "cluster_centroid_lat": 51.230972,
    "cluster_centroid_lon": 6.627527,
    "_v2_generated_at": "2026-05-17T19:34:43.773937+00:00",
    "_v2_buildings_in_pbf": 13,
    "_v2_housenumber_coverage": 1.0
  },
  {
    "cluster_id": "K_128",
    "segment_id": "KAARST_OSM_41564",
    "primary_street": "Erftstraße",
    "house_range": "1 - 44",
    "lead_count": 41,
    "A_count": 16,
    "B_count": 25,
    "unnamed_attached_count": 0,
    "recommended_action": "DOOR_TO_DOOR_FIRST",
    "cluster_centroid_lat": 51.224005,
    "cluster_centroid_lon": 6.620213,
    "_v2_generated_at": "2026-05-17T19:34:43.773992+00:00",
    "_v2_buildings_in_pbf": 41,
    "_v2_housenumber_coverage": 0.976
  },
  {
    "cluster_id": "K_129",
    "segment_id": "KAARST_OSM_41564",
    "primary_street": "Erich-Kästner-Straße",
    "house_range": "2 - 27",
    "lead_count": 20,
    "A_count": 8,
    "B_count": 12,
    "unnamed_attached_count": 0,
    "recommended_action": "DOOR_TO_DOOR_FIRST",
    "cluster_centroid_lat": 51.234567,
    "cluster_centroid_lon": 6.614148,
    "_v2_generated_at": "2026-05-17T19:34:43.774025+00:00",
    "_v2_buildings_in_pbf": 20,
    "_v2_housenumber_coverage": 1.0
  },
  {
    "cluster_id": "K_130",
    "segment_id": "KAARST_OSM_GENERAL",
    "primary_street": "Erlenweg",
    "house_range": "1 - 4",
    "lead_count": 4,
    "A_count": 1,
    "B_count": 3,
    "unnamed_attached_count": 0,
    "recommended_action": "DESK_REVIEW_FIRST",
    "cluster_centroid_lat": 51.218747,
    "cluster_centroid_lon": 6.610905,
    "_v2_generated_at": "2026-05-17T19:34:43.774041+00:00",
    "_v2_buildings_in_pbf": 4,
    "_v2_housenumber_coverage": 1.0
  },
  {
    "cluster_id": "K_131",
    "segment_id": "KAARST_OSM_41564",
    "primary_street": "Essener Straße",
    "house_range": "1 - 30",
    "lead_count": 17,
    "A_count": 6,
    "B_count": 11,
    "unnamed_attached_count": 0,
    "recommended_action": "DOOR_TO_DOOR_FIRST",
    "cluster_centroid_lat": 51.19413,
    "cluster_centroid_lon": 6.61491,
    "_v2_generated_at": "2026-05-17T19:34:43.774069+00:00",
    "_v2_buildings_in_pbf": 17,
    "_v2_housenumber_coverage": 1.0
  },
  {
    "cluster_id": "K_132",
    "segment_id": "KAARST_OSM_41564",
    "primary_street": "Falkenweg",
    "house_range": "1 - 11a",
    "lead_count": 12,
    "A_count": 4,
    "B_count": 8,
    "unnamed_attached_count": 0,
    "recommended_action": "DOOR_TO_DOOR_FIRST",
    "cluster_centroid_lat": 51.228397,
    "cluster_centroid_lon": 6.608442,
    "_v2_generated_at": "2026-05-17T19:34:43.774092+00:00",
    "_v2_buildings_in_pbf": 12,
    "_v2_housenumber_coverage": 1.0
  },
  {
    "cluster_id": "K_133",
    "segment_id": "KAARST_OSM_41564",
    "primary_street": "Fasanenweg",
    "house_range": "1 - 14",
    "lead_count": 7,
    "A_count": 2,
    "B_count": 5,
    "unnamed_attached_count": 0,
    "recommended_action": "DESK_REVIEW_FIRST",
    "cluster_centroid_lat": 51.232011,
    "cluster_centroid_lon": 6.601283,
    "_v2_generated_at": "2026-05-17T19:34:43.774109+00:00",
    "_v2_buildings_in_pbf": 7,
    "_v2_housenumber_coverage": 1.0
  },
  {
    "cluster_id": "K_134",
    "segment_id": "KAARST_OSM_41564",
    "primary_street": "Feldstraße",
    "house_range": "2 - 32",
    "lead_count": 27,
    "A_count": 10,
    "B_count": 17,
    "unnamed_attached_count": 0,
    "recommended_action": "DOOR_TO_DOOR_FIRST",
    "cluster_centroid_lat": 51.227822,
    "cluster_centroid_lon": 6.606864,
    "_v2_generated_at": "2026-05-17T19:34:43.774155+00:00",
    "_v2_buildings_in_pbf": 27,
    "_v2_housenumber_coverage": 1.0
  },
  {
    "cluster_id": "K_135",
    "segment_id": "KAARST_OSM_41564",
    "primary_street": "Finkenweg",
    "house_range": "1 - 7",
    "lead_count": 7,
    "A_count": 2,
    "B_count": 5,
    "unnamed_attached_count": 0,
    "recommended_action": "DESK_REVIEW_FIRST",
    "cluster_centroid_lat": 51.228993,
    "cluster_centroid_lon": 6.604027,
    "_v2_generated_at": "2026-05-17T19:34:43.774172+00:00",
    "_v2_buildings_in_pbf": 7,
    "_v2_housenumber_coverage": 1.0
  },
  {
    "cluster_id": "K_136",
    "segment_id": "KAARST_OSM_41564",
    "primary_street": "Flachsbleiche",
    "house_range": "1 - 72",
    "lead_count": 58,
    "A_count": 23,
    "B_count": 35,
    "unnamed_attached_count": 0,
    "recommended_action": "DOOR_TO_DOOR_FIRST",
    "cluster_centroid_lat": 51.229436,
    "cluster_centroid_lon": 6.595886,
    "_v2_generated_at": "2026-05-17T19:34:43.774245+00:00",
    "_v2_buildings_in_pbf": 58,
    "_v2_housenumber_coverage": 1.0
  },
  {
    "cluster_id": "K_137",
    "segment_id": "KAARST_OSM_41564",
    "primary_street": "Fontanestraße",
    "house_range": "1 - 12",
    "lead_count": 12,
    "A_count": 4,
    "B_count": 8,
    "unnamed_attached_count": 0,
    "recommended_action": "DOOR_TO_DOOR_FIRST",
    "cluster_centroid_lat": 51.232608,
    "cluster_centroid_lon": 6.610411,
    "_v2_generated_at": "2026-05-17T19:34:43.774268+00:00",
    "_v2_buildings_in_pbf": 12,
    "_v2_housenumber_coverage": 1.0
  },
  {
    "cluster_id": "K_138",
    "segment_id": "KAARST_OSM_41564",
    "primary_street": "Forellenweg",
    "house_range": "1 - 17",
    "lead_count": 13,
    "A_count": 5,
    "B_count": 8,
    "unnamed_attached_count": 0,
    "recommended_action": "DOOR_TO_DOOR_FIRST",
    "cluster_centroid_lat": 51.223945,
    "cluster_centroid_lon": 6.584448,
    "_v2_generated_at": "2026-05-17T19:34:43.774292+00:00",
    "_v2_buildings_in_pbf": 13,
    "_v2_housenumber_coverage": 1.0
  },
  {
    "cluster_id": "K_139",
    "segment_id": "KAARST_OSM_41564",
    "primary_street": "Frankfurter Weg",
    "house_range": "1 - 9",
    "lead_count": 9,
    "A_count": 3,
    "B_count": 6,
    "unnamed_attached_count": 0,
    "recommended_action": "DESK_REVIEW_FIRST",
    "cluster_centroid_lat": 51.221845,
    "cluster_centroid_lon": 6.629961,
    "_v2_generated_at": "2026-05-17T19:34:43.774310+00:00",
    "_v2_buildings_in_pbf": 9,
    "_v2_housenumber_coverage": 1.0
  },
  {
    "cluster_id": "K_140",
    "segment_id": "KAARST_OSM_41564",
    "primary_street": "Franziskanerstraße",
    "house_range": "1 - 20",
    "lead_count": 19,
    "A_count": 7,
    "B_count": 12,
    "unnamed_attached_count": 0,
    "recommended_action": "DOOR_TO_DOOR_FIRST",
    "cluster_centroid_lat": 51.200186,
    "cluster_centroid_lon": 6.598374,
    "_v2_generated_at": "2026-05-17T19:34:43.774343+00:00",
    "_v2_buildings_in_pbf": 19,
    "_v2_housenumber_coverage": 1.0
  },
  {
    "cluster_id": "K_141",
    "segment_id": "KAARST_OSM_41564",
    "primary_street": "Freesienweg",
    "house_range": "1 - 47",
    "lead_count": 37,
    "A_count": 14,
    "B_count": 23,
    "unnamed_attached_count": 0,
    "recommended_action": "DOOR_TO_DOOR_FIRST",
    "cluster_centroid_lat": 51.227788,
    "cluster_centroid_lon": 6.621635,
    "_v2_generated_at": "2026-05-17T19:34:43.774395+00:00",
    "_v2_buildings_in_pbf": 37,
    "_v2_housenumber_coverage": 1.0
  },
  {
    "cluster_id": "K_142",
    "segment_id": "KAARST_OSM_GENERAL",
    "primary_street": "Freiburger Weg",
    "house_range": "1 - 6",
    "lead_count": 6,
    "A_count": 2,
    "B_count": 4,
    "unnamed_attached_count": 0,
    "recommended_action": "DESK_REVIEW_FIRST",
    "cluster_centroid_lat": 51.223571,
    "cluster_centroid_lon": 6.626086,
    "_v2_generated_at": "2026-05-17T19:34:43.774412+00:00",
    "_v2_buildings_in_pbf": 6,
    "_v2_housenumber_coverage": 1.0
  },
  {
    "cluster_id": "K_143",
    "segment_id": "KAARST_OSM_41564",
    "primary_street": "Friedensstraße",
    "house_range": "3a - 58",
    "lead_count": 54,
    "A_count": 21,
    "B_count": 33,
    "unnamed_attached_count": 0,
    "recommended_action": "DOOR_TO_DOOR_FIRST",
    "cluster_centroid_lat": 51.231845,
    "cluster_centroid_lon": 6.613099,
    "_v2_generated_at": "2026-05-17T19:34:43.774482+00:00",
    "_v2_buildings_in_pbf": 54,
    "_v2_housenumber_coverage": 1.0
  },
  {
    "cluster_id": "K_144",
    "segment_id": "KAARST_OSM_41564",
    "primary_street": "Friederike-Fliedner-Straße",
    "house_range": "6 - 9",
    "lead_count": 4,
    "A_count": 1,
    "B_count": 3,
    "unnamed_attached_count": 0,
    "recommended_action": "DESK_REVIEW_FIRST",
    "cluster_centroid_lat": 51.215507,
    "cluster_centroid_lon": 6.581623,
    "_v2_generated_at": "2026-05-17T19:34:43.774496+00:00",
    "_v2_buildings_in_pbf": 4,
    "_v2_housenumber_coverage": 1.0
  },
  {
    "cluster_id": "K_145",
    "segment_id": "KAARST_OSM_41564",
    "primary_street": "Friedrich-Ebert-Straße",
    "house_range": "1 - 37",
    "lead_count": 30,
    "A_count": 12,
    "B_count": 18,
    "unnamed_attached_count": 0,
    "recommended_action": "DOOR_TO_DOOR_FIRST",
    "cluster_centroid_lat": 51.225345,
    "cluster_centroid_lon": 6.603285,
    "_v2_generated_at": "2026-05-17T19:34:43.774539+00:00",
    "_v2_buildings_in_pbf": 30,
    "_v2_housenumber_coverage": 1.0
  },
  {
    "cluster_id": "K_146",
    "segment_id": "KAARST_OSM_41564",
    "primary_street": "Friedrich-Krupp-Straße",
    "house_range": "2 - 10",
    "lead_count": 6,
    "A_count": 2,
    "B_count": 4,
    "unnamed_attached_count": 0,
    "recommended_action": "DESK_REVIEW_FIRST",
    "cluster_centroid_lat": 51.216147,
    "cluster_centroid_lon": 6.63576,
    "_v2_generated_at": "2026-05-17T19:34:43.774555+00:00",
    "_v2_buildings_in_pbf": 6,
    "_v2_housenumber_coverage": 1.0
  },
  {
    "cluster_id": "K_147",
    "segment_id": "KAARST_OSM_41564",
    "primary_street": "Fuchsienweg",
    "house_range": "1 - 4",
    "lead_count": 4,
    "A_count": 1,
    "B_count": 3,
    "unnamed_attached_count": 0,
    "recommended_action": "DESK_REVIEW_FIRST",
    "cluster_centroid_lat": 51.229629,
    "cluster_centroid_lon": 6.62712,
    "_v2_generated_at": "2026-05-17T19:34:43.774569+00:00",
    "_v2_buildings_in_pbf": 4,
    "_v2_housenumber_coverage": 1.0
  },
  {
    "cluster_id": "K_148",
    "segment_id": "KAARST_OSM_41564",
    "primary_street": "Fuchsweg",
    "house_range": "1a - 10",
    "lead_count": 14,
    "A_count": 5,
    "B_count": 9,
    "unnamed_attached_count": 0,
    "recommended_action": "DOOR_TO_DOOR_FIRST",
    "cluster_centroid_lat": 51.229433,
    "cluster_centroid_lon": 6.599218,
    "_v2_generated_at": "2026-05-17T19:34:43.774594+00:00",
    "_v2_buildings_in_pbf": 14,
    "_v2_housenumber_coverage": 1.0
  },
  {
    "cluster_id": "K_149",
    "segment_id": "KAARST_OSM_41564",
    "primary_street": "Gartenstraße",
    "house_range": "1 - 5",
    "lead_count": 4,
    "A_count": 1,
    "B_count": 3,
    "unnamed_attached_count": 0,
    "recommended_action": "DESK_REVIEW_FIRST",
    "cluster_centroid_lat": 51.194012,
    "cluster_centroid_lon": 6.607915,
    "_v2_generated_at": "2026-05-17T19:34:43.774607+00:00",
    "_v2_buildings_in_pbf": 4,
    "_v2_housenumber_coverage": 1.0
  },
  {
    "cluster_id": "K_150",
    "segment_id": "KAARST_OSM_41564",
    "primary_street": "Gemsenstraße",
    "house_range": "1 - 66",
    "lead_count": 54,
    "A_count": 21,
    "B_count": 33,
    "unnamed_attached_count": 0,
    "recommended_action": "DOOR_TO_DOOR_FIRST",
    "cluster_centroid_lat": 51.229652,
    "cluster_centroid_lon": 6.595636,
    "_v2_generated_at": "2026-05-17T19:34:43.774696+00:00",
    "_v2_buildings_in_pbf": 54,
    "_v2_housenumber_coverage": 1.0
  },
  {
    "cluster_id": "K_151",
    "segment_id": "KAARST_OSM_41564",
    "primary_street": "Geranienweg",
    "house_range": "2 - 11",
    "lead_count": 8,
    "A_count": 3,
    "B_count": 5,
    "unnamed_attached_count": 0,
    "recommended_action": "DESK_REVIEW_FIRST",
    "cluster_centroid_lat": 51.229076,
    "cluster_centroid_lon": 6.621291,
    "_v2_generated_at": "2026-05-17T19:34:43.774716+00:00",
    "_v2_buildings_in_pbf": 8,
    "_v2_housenumber_coverage": 1.0
  },
  {
    "cluster_id": "K_152",
    "segment_id": "KAARST_OSM_41564",
    "primary_street": "Geschwister-Scholl-Straße",
    "house_range": "1 - 12",
    "lead_count": 10,
    "A_count": 4,
    "B_count": 6,
    "unnamed_attached_count": 0,
    "recommended_action": "DESK_REVIEW_FIRST",
    "cluster_centroid_lat": 51.218336,
    "cluster_centroid_lon": 6.614905,
    "_v2_generated_at": "2026-05-17T19:34:43.774737+00:00",
    "_v2_buildings_in_pbf": 10,
    "_v2_housenumber_coverage": 1.0
  },
  {
    "cluster_id": "K_153",
    "segment_id": "KAARST_OSM_41564",
    "primary_street": "Giemesstraße",
    "house_range": "1a - 36",
    "lead_count": 32,
    "A_count": 12,
    "B_count": 20,
    "unnamed_attached_count": 0,
    "recommended_action": "DOOR_TO_DOOR_FIRST",
    "cluster_centroid_lat": 51.233129,
    "cluster_centroid_lon": 6.615672,
    "_v2_generated_at": "2026-05-17T19:34:43.774784+00:00",
    "_v2_buildings_in_pbf": 32,
    "_v2_housenumber_coverage": 1.0
  },
  {
    "cluster_id": "K_154",
    "segment_id": "KAARST_OSM_41564",
    "primary_street": "Gilbachweg",
    "house_range": "1 - 10",
    "lead_count": 10,
    "A_count": 4,
    "B_count": 6,
    "unnamed_attached_count": 0,
    "recommended_action": "DESK_REVIEW_FIRST",
    "cluster_centroid_lat": 51.223614,
    "cluster_centroid_lon": 6.622164,
    "_v2_generated_at": "2026-05-17T19:34:43.774807+00:00",
    "_v2_buildings_in_pbf": 10,
    "_v2_housenumber_coverage": 1.0
  },
  {
    "cluster_id": "K_155",
    "segment_id": "KAARST_OSM_GENERAL",
    "primary_street": "Gilbachweg",
    "house_range": "12 - 22",
    "lead_count": 6,
    "A_count": 2,
    "B_count": 4,
    "unnamed_attached_count": 0,
    "recommended_action": "DESK_REVIEW_FIRST",
    "cluster_centroid_lat": 51.223488,
    "cluster_centroid_lon": 6.621805,
    "_v2_generated_at": "2026-05-17T19:34:43.774824+00:00",
    "_v2_buildings_in_pbf": 6,
    "_v2_housenumber_coverage": 1.0
  },
  {
    "cluster_id": "K_156",
    "segment_id": "KAARST_OSM_41564",
    "primary_street": "Ginsterweg",
    "house_range": "1 - 15",
    "lead_count": 10,
    "A_count": 4,
    "B_count": 6,
    "unnamed_attached_count": 0,
    "recommended_action": "DESK_REVIEW_FIRST",
    "cluster_centroid_lat": 51.215723,
    "cluster_centroid_lon": 6.62298,
    "_v2_generated_at": "2026-05-17T19:34:43.774844+00:00",
    "_v2_buildings_in_pbf": 10,
    "_v2_housenumber_coverage": 1.0
  },
  {
    "cluster_id": "K_157",
    "segment_id": "KAARST_OSM_41564",
    "primary_street": "Girmes-Kreuz-Straße",
    "house_range": "1 - 94",
    "lead_count": 83,
    "A_count": 33,
    "B_count": 50,
    "unnamed_attached_count": 0,
    "recommended_action": "DOOR_TO_DOOR_FIRST",
    "cluster_centroid_lat": 51.222401,
    "cluster_centroid_lon": 6.624435,
    "_v2_generated_at": "2026-05-17T19:34:43.774954+00:00",
    "_v2_buildings_in_pbf": 83,
    "_v2_housenumber_coverage": 1.0
  },
  {
    "cluster_id": "K_158",
    "segment_id": "KAARST_OSM_GENERAL",
    "primary_street": "Girmes-Kreuz-Straße",
    "house_range": "2 - 63a",
    "lead_count": 14,
    "A_count": 5,
    "B_count": 9,
    "unnamed_attached_count": 0,
    "recommended_action": "DOOR_TO_DOOR_FIRST",
    "cluster_centroid_lat": 51.223892,
    "cluster_centroid_lon": 6.623642,
    "_v2_generated_at": "2026-05-17T19:34:43.774980+00:00",
    "_v2_buildings_in_pbf": 14,
    "_v2_housenumber_coverage": 1.0
  },
  {
    "cluster_id": "K_159",
    "segment_id": "KAARST_OSM_41564",
    "primary_street": "Gladbacher Straße",
    "house_range": "2 - 55",
    "lead_count": 48,
    "A_count": 19,
    "B_count": 29,
    "unnamed_attached_count": 0,
    "recommended_action": "DOOR_TO_DOOR_FIRST",
    "cluster_centroid_lat": 51.194618,
    "cluster_centroid_lon": 6.60265,
    "_v2_generated_at": "2026-05-17T19:34:43.775045+00:00",
    "_v2_buildings_in_pbf": 48,
    "_v2_housenumber_coverage": 1.0
  },
  {
    "cluster_id": "K_160",
    "segment_id": "KAARST_OSM_41564",
    "primary_street": "Gladiolenweg",
    "house_range": "1 - 34",
    "lead_count": 26,
    "A_count": 10,
    "B_count": 16,
    "unnamed_attached_count": 0,
    "recommended_action": "DOOR_TO_DOOR_FIRST",
    "cluster_centroid_lat": 51.22702,
    "cluster_centroid_lon": 6.62907,
    "_v2_generated_at": "2026-05-17T19:34:43.775087+00:00",
    "_v2_buildings_in_pbf": 26,
    "_v2_housenumber_coverage": 1.0
  },
  {
    "cluster_id": "K_161",
    "segment_id": "KAARST_OSM_41564",
    "primary_street": "Glehner Straße",
    "house_range": "5 - 57",
    "lead_count": 46,
    "A_count": 18,
    "B_count": 28,
    "unnamed_attached_count": 0,
    "recommended_action": "DOOR_TO_DOOR_FIRST",
    "cluster_centroid_lat": 51.193106,
    "cluster_centroid_lon": 6.608322,
    "_v2_generated_at": "2026-05-17T19:34:43.775149+00:00",
    "_v2_buildings_in_pbf": 46,
    "_v2_housenumber_coverage": 1.0
  },
  {
    "cluster_id": "K_162",
    "segment_id": "KAARST_OSM_41564",
    "primary_street": "Gleiwitzer Straße",
    "house_range": "1 - 48",
    "lead_count": 32,
    "A_count": 12,
    "B_count": 20,
    "unnamed_attached_count": 0,
    "recommended_action": "DOOR_TO_DOOR_FIRST",
    "cluster_centroid_lat": 51.219408,
    "cluster_centroid_lon": 6.603867,
    "_v2_generated_at": "2026-05-17T19:34:43.775197+00:00",
    "_v2_buildings_in_pbf": 32,
    "_v2_housenumber_coverage": 1.0
  },
  {
    "cluster_id": "K_163",
    "segment_id": "KAARST_OSM_41564",
    "primary_street": "Goethestraße",
    "house_range": "1 - 6",
    "lead_count": 6,
    "A_count": 2,
    "B_count": 4,
    "unnamed_attached_count": 0,
    "recommended_action": "DESK_REVIEW_FIRST",
    "cluster_centroid_lat": 51.232659,
    "cluster_centroid_lon": 6.611483,
    "_v2_generated_at": "2026-05-17T19:34:43.775213+00:00",
    "_v2_buildings_in_pbf": 6,
    "_v2_housenumber_coverage": 1.0
  },
  {
    "cluster_id": "K_164",
    "segment_id": "KAARST_OSM_41564",
    "primary_street": "Goldammerweg",
    "house_range": "2 - 14",
    "lead_count": 9,
    "A_count": 3,
    "B_count": 6,
    "unnamed_attached_count": 0,
    "recommended_action": "DESK_REVIEW_FIRST",
    "cluster_centroid_lat": 51.230581,
    "cluster_centroid_lon": 6.60005,
    "_v2_generated_at": "2026-05-17T19:34:43.775235+00:00",
    "_v2_buildings_in_pbf": 9,
    "_v2_housenumber_coverage": 1.0
  },
  {
    "cluster_id": "K_165",
    "segment_id": "KAARST_OSM_41564",
    "primary_street": "Goldregenweg",
    "house_range": "1 - 16",
    "lead_count": 8,
    "A_count": 3,
    "B_count": 5,
    "unnamed_attached_count": 0,
    "recommended_action": "DESK_REVIEW_FIRST",
    "cluster_centroid_lat": 51.21524,
    "cluster_centroid_lon": 6.6231,
    "_v2_generated_at": "2026-05-17T19:34:43.775253+00:00",
    "_v2_buildings_in_pbf": 8,
    "_v2_housenumber_coverage": 1.0
  },
  {
    "cluster_id": "K_166",
    "segment_id": "KAARST_OSM_GENERAL",
    "primary_street": "Goldregenweg",
    "house_range": "4 - 8",
    "lead_count": 4,
    "A_count": 1,
    "B_count": 3,
    "unnamed_attached_count": 0,
    "recommended_action": "DESK_REVIEW_FIRST",
    "cluster_centroid_lat": 51.215335,
    "cluster_centroid_lon": 6.623661,
    "_v2_generated_at": "2026-05-17T19:34:43.775267+00:00",
    "_v2_buildings_in_pbf": 4,
    "_v2_housenumber_coverage": 1.0
  },
  {
    "cluster_id": "K_167",
    "segment_id": "KAARST_OSM_41564",
    "primary_street": "Granatweg",
    "house_range": "1a - 5",
    "lead_count": 5,
    "A_count": 2,
    "B_count": 3,
    "unnamed_attached_count": 0,
    "recommended_action": "DESK_REVIEW_FIRST",
    "cluster_centroid_lat": 51.214229,
    "cluster_centroid_lon": 6.620347,
    "_v2_generated_at": "2026-05-17T19:34:43.775282+00:00",
    "_v2_buildings_in_pbf": 5,
    "_v2_housenumber_coverage": 1.0
  },
  {
    "cluster_id": "K_168",
    "segment_id": "KAARST_OSM_41564",
    "primary_street": "Grefrather Straße",
    "house_range": "2 - 50",
    "lead_count": 34,
    "A_count": 13,
    "B_count": 21,
    "unnamed_attached_count": 0,
    "recommended_action": "DOOR_TO_DOOR_FIRST",
    "cluster_centroid_lat": 51.193504,
    "cluster_centroid_lon": 6.611049,
    "_v2_generated_at": "2026-05-17T19:34:43.775331+00:00",
    "_v2_buildings_in_pbf": 34,
    "_v2_housenumber_coverage": 1.0
  },
  {
    "cluster_id": "K_169",
    "segment_id": "KAARST_OSM_41564",
    "primary_street": "Grosser Mühlenweg",
    "house_range": "3 - 39",
    "lead_count": 28,
    "A_count": 11,
    "B_count": 17,
    "unnamed_attached_count": 0,
    "recommended_action": "DOOR_TO_DOOR_FIRST",
    "cluster_centroid_lat": 51.212634,
    "cluster_centroid_lon": 6.62286,
    "_v2_generated_at": "2026-05-17T19:34:43.775373+00:00",
    "_v2_buildings_in_pbf": 28,
    "_v2_housenumber_coverage": 1.0
  },
  {
    "cluster_id": "K_170",
    "segment_id": "KAARST_OSM_GENERAL",
    "primary_street": "Grosser Mühlenweg",
    "house_range": "18 - 22",
    "lead_count": 3,
    "A_count": 1,
    "B_count": 2,
    "unnamed_attached_count": 0,
    "recommended_action": "DESK_REVIEW_FIRST",
    "cluster_centroid_lat": 51.212544,
    "cluster_centroid_lon": 6.622739,
    "_v2_generated_at": "2026-05-17T19:34:43.775387+00:00",
    "_v2_buildings_in_pbf": 3,
    "_v2_housenumber_coverage": 1.0
  },
  {
    "cluster_id": "K_171",
    "segment_id": "KAARST_OSM_41564",
    "primary_street": "Großer Mühlenweg",
    "house_range": "41 - 52",
    "lead_count": 6,
    "A_count": 2,
    "B_count": 4,
    "unnamed_attached_count": 0,
    "recommended_action": "DESK_REVIEW_FIRST",
    "cluster_centroid_lat": 51.209767,
    "cluster_centroid_lon": 6.624403,
    "_v2_generated_at": "2026-05-17T19:34:43.775403+00:00",
    "_v2_buildings_in_pbf": 6,
    "_v2_housenumber_coverage": 1.0
  },
  {
    "cluster_id": "K_172",
    "segment_id": "KAARST_OSM_41564",
    "primary_street": "Grünewaldplatz",
    "house_range": "1 - 8",
    "lead_count": 8,
    "A_count": 3,
    "B_count": 5,
    "unnamed_attached_count": 0,
    "recommended_action": "DESK_REVIEW_FIRST",
    "cluster_centroid_lat": 51.199693,
    "cluster_centroid_lon": 6.612921,
    "_v2_generated_at": "2026-05-17T19:34:43.775421+00:00",
    "_v2_buildings_in_pbf": 8,
    "_v2_housenumber_coverage": 1.0
  },
  {
    "cluster_id": "K_173",
    "segment_id": "KAARST_OSM_41564",
    "primary_street": "Grünstraße",
    "house_range": "1 - 69",
    "lead_count": 62,
    "A_count": 24,
    "B_count": 38,
    "unnamed_attached_count": 0,
    "recommended_action": "DOOR_TO_DOOR_FIRST",
    "cluster_centroid_lat": 51.229355,
    "cluster_centroid_lon": 6.624763,
    "_v2_generated_at": "2026-05-17T19:34:43.775500+00:00",
    "_v2_buildings_in_pbf": 62,
    "_v2_housenumber_coverage": 1.0
  },
  {
    "cluster_id": "K_174",
    "segment_id": "KAARST_OSM_41564",
    "primary_street": "Gutenbergstraße",
    "house_range": "1a - 48",
    "lead_count": 25,
    "A_count": 10,
    "B_count": 15,
    "unnamed_attached_count": 0,
    "recommended_action": "DOOR_TO_DOOR_FIRST",
    "cluster_centroid_lat": 51.196832,
    "cluster_centroid_lon": 6.615213,
    "_v2_generated_at": "2026-05-17T19:34:43.775538+00:00",
    "_v2_buildings_in_pbf": 25,
    "_v2_housenumber_coverage": 1.0
  },
  {
    "cluster_id": "K_175",
    "segment_id": "KAARST_OSM_41564",
    "primary_street": "Görlitzer Straße",
    "house_range": "2 - 21",
    "lead_count": 16,
    "A_count": 6,
    "B_count": 10,
    "unnamed_attached_count": 0,
    "recommended_action": "DOOR_TO_DOOR_FIRST",
    "cluster_centroid_lat": 51.22083,
    "cluster_centroid_lon": 6.605964,
    "_v2_generated_at": "2026-05-17T19:34:43.775565+00:00",
    "_v2_buildings_in_pbf": 16,
    "_v2_housenumber_coverage": 1.0
  },
  {
    "cluster_id": "K_176",
    "segment_id": "KAARST_OSM_41564",
    "primary_street": "Habichtweg",
    "house_range": "1a - 17",
    "lead_count": 16,
    "A_count": 6,
    "B_count": 10,
    "unnamed_attached_count": 0,
    "recommended_action": "DOOR_TO_DOOR_FIRST",
    "cluster_centroid_lat": 51.228791,
    "cluster_centroid_lon": 6.607639,
    "_v2_generated_at": "2026-05-17T19:34:43.775592+00:00",
    "_v2_buildings_in_pbf": 16,
    "_v2_housenumber_coverage": 1.0
  },
  {
    "cluster_id": "K_177",
    "segment_id": "KAARST_OSM_GENERAL",
    "primary_street": "Hagebuttenweg",
    "house_range": "1 - 21",
    "lead_count": 14,
    "A_count": 5,
    "B_count": 9,
    "unnamed_attached_count": 0,
    "recommended_action": "DOOR_TO_DOOR_FIRST",
    "cluster_centroid_lat": 51.215406,
    "cluster_centroid_lon": 6.624969,
    "_v2_generated_at": "2026-05-17T19:34:43.775617+00:00",
    "_v2_buildings_in_pbf": 14,
    "_v2_housenumber_coverage": 1.0
  },
  {
    "cluster_id": "K_178",
    "segment_id": "KAARST_OSM_41564",
    "primary_street": "Hainbuchenweg",
    "house_range": "1 - 12",
    "lead_count": 12,
    "A_count": 4,
    "B_count": 8,
    "unnamed_attached_count": 0,
    "recommended_action": "DOOR_TO_DOOR_FIRST",
    "cluster_centroid_lat": 51.215116,
    "cluster_centroid_lon": 6.622146,
    "_v2_generated_at": "2026-05-17T19:34:43.775639+00:00",
    "_v2_buildings_in_pbf": 12,
    "_v2_housenumber_coverage": 1.0
  },
  {
    "cluster_id": "K_179",
    "segment_id": "KAARST_OSM_41564",
    "primary_street": "Halestraße",
    "house_range": "2 - 16",
    "lead_count": 9,
    "A_count": 3,
    "B_count": 6,
    "unnamed_attached_count": 0,
    "recommended_action": "DESK_REVIEW_FIRST",
    "cluster_centroid_lat": 51.23272,
    "cluster_centroid_lon": 6.620609,
    "_v2_generated_at": "2026-05-17T19:34:43.775659+00:00",
    "_v2_buildings_in_pbf": 9,
    "_v2_housenumber_coverage": 1.0
  },
  {
    "cluster_id": "K_180",
    "segment_id": "KAARST_OSM_41564",
    "primary_street": "Hanauer Weg",
    "house_range": "25a - 28",
    "lead_count": 3,
    "A_count": 1,
    "B_count": 2,
    "unnamed_attached_count": 0,
    "recommended_action": "DESK_REVIEW_FIRST",
    "cluster_centroid_lat": 51.224648,
    "cluster_centroid_lon": 6.623863,
    "_v2_generated_at": "2026-05-17T19:34:43.775675+00:00",
    "_v2_buildings_in_pbf": 3,
    "_v2_housenumber_coverage": 1.0
  },
  {
    "cluster_id": "K_181",
    "segment_id": "KAARST_OSM_GENERAL",
    "primary_street": "Hanauer Weg",
    "house_range": "1 - 63",
    "lead_count": 53,
    "A_count": 21,
    "B_count": 32,
    "unnamed_attached_count": 0,
    "recommended_action": "DOOR_TO_DOOR_FIRST",
    "cluster_centroid_lat": 51.224765,
    "cluster_centroid_lon": 6.624474,
    "_v2_generated_at": "2026-05-17T19:34:43.775749+00:00",
    "_v2_buildings_in_pbf": 53,
    "_v2_housenumber_coverage": 1.0
  },
  {
    "cluster_id": "K_182",
    "segment_id": "KAARST_OSM_41564",
    "primary_street": "Hanns-Martin-Schleyer-Straße",
    "house_range": "2 - 29",
    "lead_count": 16,
    "A_count": 6,
    "B_count": 10,
    "unnamed_attached_count": 0,
    "recommended_action": "DOOR_TO_DOOR_FIRST",
    "cluster_centroid_lat": 51.214061,
    "cluster_centroid_lon": 6.640728,
    "_v2_generated_at": "2026-05-17T19:34:43.775776+00:00",
    "_v2_buildings_in_pbf": 16,
    "_v2_housenumber_coverage": 1.0
  },
  {
    "cluster_id": "K_183",
    "segment_id": "KAARST_OSM_41564",
    "primary_street": "Hardenbergstraße",
    "house_range": "1 - 26",
    "lead_count": 28,
    "A_count": 11,
    "B_count": 17,
    "unnamed_attached_count": 0,
    "recommended_action": "DOOR_TO_DOOR_FIRST",
    "cluster_centroid_lat": 51.198412,
    "cluster_centroid_lon": 6.610416,
    "_v2_generated_at": "2026-05-17T19:34:43.775821+00:00",
    "_v2_buildings_in_pbf": 28,
    "_v2_housenumber_coverage": 1.0
  },
  {
    "cluster_id": "K_184",
    "segment_id": "KAARST_OSM_41564",
    "primary_street": "Hasenweg",
    "house_range": "1 - 19",
    "lead_count": 12,
    "A_count": 4,
    "B_count": 8,
    "unnamed_attached_count": 0,
    "recommended_action": "DOOR_TO_DOOR_FIRST",
    "cluster_centroid_lat": 51.229547,
    "cluster_centroid_lon": 6.592605,
    "_v2_generated_at": "2026-05-17T19:34:43.775844+00:00",
    "_v2_buildings_in_pbf": 12,
    "_v2_housenumber_coverage": 1.0
  },
  {
    "cluster_id": "K_185",
    "segment_id": "KAARST_OSM_41564",
    "primary_street": "Hasselstraße",
    "house_range": "8 - 73",
    "lead_count": 66,
    "A_count": 26,
    "B_count": 40,
    "unnamed_attached_count": 0,
    "recommended_action": "DOOR_TO_DOOR_FIRST",
    "cluster_centroid_lat": 51.213246,
    "cluster_centroid_lon": 6.616928,
    "_v2_generated_at": "2026-05-17T19:34:43.775933+00:00",
    "_v2_buildings_in_pbf": 66,
    "_v2_housenumber_coverage": 1.0
  },
  {
    "cluster_id": "K_186",
    "segment_id": "KAARST_OSM_GENERAL",
    "primary_street": "Hasselstraße",
    "house_range": "1 - 66",
    "lead_count": 4,
    "A_count": 1,
    "B_count": 3,
    "unnamed_attached_count": 0,
    "recommended_action": "DESK_REVIEW_FIRST",
    "cluster_centroid_lat": 51.214089,
    "cluster_centroid_lon": 6.614644,
    "_v2_generated_at": "2026-05-17T19:34:43.775947+00:00",
    "_v2_buildings_in_pbf": 4,
    "_v2_housenumber_coverage": 1.0
  },
  {
    "cluster_id": "K_187",
    "segment_id": "KAARST_OSM_41564",
    "primary_street": "Hauptstraße",
    "house_range": "1a - 50",
    "lead_count": 43,
    "A_count": 17,
    "B_count": 26,
    "unnamed_attached_count": 0,
    "recommended_action": "DOOR_TO_DOOR_FIRST",
    "cluster_centroid_lat": 51.207002,
    "cluster_centroid_lon": 6.594067,
    "_v2_generated_at": "2026-05-17T19:34:43.776008+00:00",
    "_v2_buildings_in_pbf": 43,
    "_v2_housenumber_coverage": 1.0
  },
  {
    "cluster_id": "K_188",
    "segment_id": "KAARST_OSM_41564",
    "primary_street": "Haydnstraße",
    "house_range": "1 - 37",
    "lead_count": 22,
    "A_count": 8,
    "B_count": 14,
    "unnamed_attached_count": 0,
    "recommended_action": "DOOR_TO_DOOR_FIRST",
    "cluster_centroid_lat": 51.193162,
    "cluster_centroid_lon": 6.601959,
    "_v2_generated_at": "2026-05-17T19:34:43.776046+00:00",
    "_v2_buildings_in_pbf": 22,
    "_v2_housenumber_coverage": 1.0
  },
  {
    "cluster_id": "K_189",
    "segment_id": "KAARST_OSM_41564",
    "primary_street": "Hechtweg",
    "house_range": "1 - 13",
    "lead_count": 6,
    "A_count": 2,
    "B_count": 4,
    "unnamed_attached_count": 0,
    "recommended_action": "DESK_REVIEW_FIRST",
    "cluster_centroid_lat": 51.223491,
    "cluster_centroid_lon": 6.584488,
    "_v2_generated_at": "2026-05-17T19:34:43.776063+00:00",
    "_v2_buildings_in_pbf": 6,
    "_v2_housenumber_coverage": 1.0
  },
  {
    "cluster_id": "K_190",
    "segment_id": "KAARST_OSM_41564",
    "primary_street": "Hedwigstraße",
    "house_range": "1 - 15",
    "lead_count": 14,
    "A_count": 5,
    "B_count": 9,
    "unnamed_attached_count": 0,
    "recommended_action": "DOOR_TO_DOOR_FIRST",
    "cluster_centroid_lat": 51.198131,
    "cluster_centroid_lon": 6.596582,
    "_v2_generated_at": "2026-05-17T19:34:43.776089+00:00",
    "_v2_buildings_in_pbf": 14,
    "_v2_housenumber_coverage": 1.0
  },
  {
    "cluster_id": "K_191",
    "segment_id": "KAARST_OSM_GENERAL",
    "primary_street": "Heidelberger Weg",
    "house_range": "1 - 6",
    "lead_count": 6,
    "A_count": 2,
    "B_count": 4,
    "unnamed_attached_count": 0,
    "recommended_action": "DESK_REVIEW_FIRST",
    "cluster_centroid_lat": 51.223477,
    "cluster_centroid_lon": 6.626991,
    "_v2_generated_at": "2026-05-17T19:34:43.776105+00:00",
    "_v2_buildings_in_pbf": 6,
    "_v2_housenumber_coverage": 1.0
  },
  {
    "cluster_id": "K_192",
    "segment_id": "KAARST_OSM_41564",
    "primary_street": "Hein-Minkenberg-Straße",
    "house_range": "1 - 19",
    "lead_count": 18,
    "A_count": 7,
    "B_count": 11,
    "unnamed_attached_count": 0,
    "recommended_action": "DOOR_TO_DOOR_FIRST",
    "cluster_centroid_lat": 51.196661,
    "cluster_centroid_lon": 6.610639,
    "_v2_generated_at": "2026-05-17T19:34:43.776137+00:00",
    "_v2_buildings_in_pbf": 18,
    "_v2_housenumber_coverage": 1.0
  },
  {
    "cluster_id": "K_193",
    "segment_id": "KAARST_OSM_41564",
    "primary_street": "Heineweg",
    "house_range": "1 - 7",
    "lead_count": 6,
    "A_count": 2,
    "B_count": 4,
    "unnamed_attached_count": 0,
    "recommended_action": "DESK_REVIEW_FIRST",
    "cluster_centroid_lat": 51.23177,
    "cluster_centroid_lon": 6.611265,
    "_v2_generated_at": "2026-05-17T19:34:43.776153+00:00",
    "_v2_buildings_in_pbf": 6,
    "_v2_housenumber_coverage": 1.0
  },
  {
    "cluster_id": "K_194",
    "segment_id": "KAARST_OSM_41564",
    "primary_street": "Heinrich-Hertz-Straße",
    "house_range": "2 - 44",
    "lead_count": 32,
    "A_count": 12,
    "B_count": 20,
    "unnamed_attached_count": 0,
    "recommended_action": "DOOR_TO_DOOR_FIRST",
    "cluster_centroid_lat": 51.226465,
    "cluster_centroid_lon": 6.61308,
    "_v2_generated_at": "2026-05-17T19:34:43.776200+00:00",
    "_v2_buildings_in_pbf": 32,
    "_v2_housenumber_coverage": 1.0
  },
  {
    "cluster_id": "K_195",
    "segment_id": "KAARST_OSM_41564",
    "primary_street": "Heinrich-Lübke-Straße",
    "house_range": "1 - 28",
    "lead_count": 26,
    "A_count": 10,
    "B_count": 16,
    "unnamed_attached_count": 0,
    "recommended_action": "DOOR_TO_DOOR_FIRST",
    "cluster_centroid_lat": 51.235233,
    "cluster_centroid_lon": 6.612007,
    "_v2_generated_at": "2026-05-17T19:34:43.776239+00:00",
    "_v2_buildings_in_pbf": 26,
    "_v2_housenumber_coverage": 1.0
  },
  {
    "cluster_id": "K_196",
    "segment_id": "KAARST_OSM_41564",
    "primary_street": "Heinz-Klever-Straße",
    "house_range": "1a - 15",
    "lead_count": 13,
    "A_count": 5,
    "B_count": 8,
    "unnamed_attached_count": 0,
    "recommended_action": "DOOR_TO_DOOR_FIRST",
    "cluster_centroid_lat": 51.22037,
    "cluster_centroid_lon": 6.617821,
    "_v2_generated_at": "2026-05-17T19:34:43.776266+00:00",
    "_v2_buildings_in_pbf": 13,
    "_v2_housenumber_coverage": 1.0
  },
  {
    "cluster_id": "K_197",
    "segment_id": "KAARST_OSM_41564",
    "primary_street": "Hellerfeld",
    "house_range": "1 - 27",
    "lead_count": 13,
    "A_count": 5,
    "B_count": 8,
    "unnamed_attached_count": 0,
    "recommended_action": "DOOR_TO_DOOR_FIRST",
    "cluster_centroid_lat": 51.206025,
    "cluster_centroid_lon": 6.595038,
    "_v2_generated_at": "2026-05-17T19:34:43.776290+00:00",
    "_v2_buildings_in_pbf": 13,
    "_v2_housenumber_coverage": 1.0
  },
  {
    "cluster_id": "K_198",
    "segment_id": "KAARST_OSM_41564",
    "primary_street": "Hermann-Löns-Straße",
    "house_range": "1 - 19",
    "lead_count": 12,
    "A_count": 4,
    "B_count": 8,
    "unnamed_attached_count": 0,
    "recommended_action": "DOOR_TO_DOOR_FIRST",
    "cluster_centroid_lat": 51.231261,
    "cluster_centroid_lon": 6.612089,
    "_v2_generated_at": "2026-05-17T19:34:43.776313+00:00",
    "_v2_buildings_in_pbf": 12,
    "_v2_housenumber_coverage": 1.0
  },
  {
    "cluster_id": "K_199",
    "segment_id": "KAARST_OSM_41564",
    "primary_street": "Hermannistraße",
    "house_range": "1 - 15",
    "lead_count": 19,
    "A_count": 7,
    "B_count": 12,
    "unnamed_attached_count": 0,
    "recommended_action": "DOOR_TO_DOOR_FIRST",
    "cluster_centroid_lat": 51.197581,
    "cluster_centroid_lon": 6.608752,
    "_v2_generated_at": "2026-05-17T19:34:43.776346+00:00",
    "_v2_buildings_in_pbf": 19,
    "_v2_housenumber_coverage": 1.0
  },
  {
    "cluster_id": "K_200",
    "segment_id": "KAARST_OSM_41564",
    "primary_street": "Hildegardisstraße",
    "house_range": "2 - 6",
    "lead_count": 6,
    "A_count": 2,
    "B_count": 4,
    "unnamed_attached_count": 0,
    "recommended_action": "DESK_REVIEW_FIRST",
    "cluster_centroid_lat": 51.199319,
    "cluster_centroid_lon": 6.596289,
    "_v2_generated_at": "2026-05-17T19:34:43.776362+00:00",
    "_v2_buildings_in_pbf": 6,
    "_v2_housenumber_coverage": 1.0
  },
  {
    "cluster_id": "K_201",
    "segment_id": "KAARST_OSM_41564",
    "primary_street": "Himmgasse",
    "house_range": "1 - 5",
    "lead_count": 3,
    "A_count": 1,
    "B_count": 2,
    "unnamed_attached_count": 0,
    "recommended_action": "DESK_REVIEW_FIRST",
    "cluster_centroid_lat": 51.218129,
    "cluster_centroid_lon": 6.570051,
    "_v2_generated_at": "2026-05-17T19:34:43.776374+00:00",
    "_v2_buildings_in_pbf": 3,
    "_v2_housenumber_coverage": 1.0
  },
  {
    "cluster_id": "K_202",
    "segment_id": "KAARST_OSM_41564",
    "primary_street": "Hinterfeld",
    "house_range": "1 - 61",
    "lead_count": 70,
    "A_count": 28,
    "B_count": 42,
    "unnamed_attached_count": 0,
    "recommended_action": "DOOR_TO_DOOR_FIRST",
    "cluster_centroid_lat": 51.221507,
    "cluster_centroid_lon": 6.620055,
    "_v2_generated_at": "2026-05-17T19:34:43.776468+00:00",
    "_v2_buildings_in_pbf": 70,
    "_v2_housenumber_coverage": 1.0
  },
  {
    "cluster_id": "K_203",
    "segment_id": "KAARST_OSM_41564",
    "primary_street": "Hirschstraße",
    "house_range": "1 - 17",
    "lead_count": 16,
    "A_count": 6,
    "B_count": 10,
    "unnamed_attached_count": 0,
    "recommended_action": "DOOR_TO_DOOR_FIRST",
    "cluster_centroid_lat": 51.231453,
    "cluster_centroid_lon": 6.593721,
    "_v2_generated_at": "2026-05-17T19:34:43.776496+00:00",
    "_v2_buildings_in_pbf": 16,
    "_v2_housenumber_coverage": 1.0
  },
  {
    "cluster_id": "K_204",
    "segment_id": "KAARST_OSM_41564",
    "primary_street": "Hoferhofweg",
    "house_range": "1 - 23",
    "lead_count": 11,
    "A_count": 4,
    "B_count": 7,
    "unnamed_attached_count": 0,
    "recommended_action": "DOOR_TO_DOOR_FIRST",
    "cluster_centroid_lat": 51.22985,
    "cluster_centroid_lon": 6.634283,
    "_v2_generated_at": "2026-05-17T19:34:43.776518+00:00",
    "_v2_buildings_in_pbf": 11,
    "_v2_housenumber_coverage": 1.0
  },
  {
    "cluster_id": "K_205",
    "segment_id": "KAARST_OSM_41564",
    "primary_street": "Holbeinstraße",
    "house_range": "1 - 13",
    "lead_count": 9,
    "A_count": 3,
    "B_count": 6,
    "unnamed_attached_count": 0,
    "recommended_action": "DESK_REVIEW_FIRST",
    "cluster_centroid_lat": 51.200433,
    "cluster_centroid_lon": 6.612662,
    "_v2_generated_at": "2026-05-17T19:34:43.776537+00:00",
    "_v2_buildings_in_pbf": 9,
    "_v2_housenumber_coverage": 1.0
  },